row_number,AGNO,RBD,DGV_RBD,NOM_RBD,MRUN,RUT_SOSTENEDOR,P_JURIDICA,COD_REG_RBD,NOM_REG_RBD_A,COD_PRO_RBD,COD_COM_RBD,NOM_COM_RBD,COD_DEPROV_RBD,NOM_DEPROV_RBD,COD_DEPE,COD_DEPE2,RURAL_RBD,CONVENIO_PIE,ENS_01,ENS_02,ENS_03,ENS_04,ENS_05,ENS_06,ENS_07,ENS_08,ENS_09,ENS_10,ENS_11,MATRICULA,ESTADO_ESTAB,ORI_RELIGIOSA,ORI_OTRO_GLOSA,PAGO_MATRICULA,PAGO_MENSUAL,lat,long,geohash,geometry,cod_comuna,Comuna
0,2019,1,9,LICEO POLITECNICO ARICA, ,69010100,1,15,AYP,151,15101,ARICA,151,ARICA,2,1,0,1,463,510,563,610,663,863,0,0,0,0,0,1,1,2, ,GRATUITO,GRATUITO,-18.48727417,-70.29473877,6kwnb6k,POINT (-70.29473877 -18.48727417),15101,Arica
1,2019,2,7,PARVULARIO LAS ESPIGUITAS, ,69010100,1,15,AYP,151,15101,ARICA,151,ARICA,2,1,0,1,10,0,0,0,0,0,0,0,0,0,0,1,1,2, ,GRATUITO,GRATUITO,-18.46986198,-70.30275726,6kwnbjx,POINT (-70.30275726000001 -18.46986198),15101,Arica
2,2019,3,5,ESC. PEDRO VICENTE GUTIERREZ TORRES, ,69010100,1,15,AYP,151,15101,ARICA,151,ARICA,2,1,1,0,165,167,363,0,0,0,0,0,0,0,0,1,1,1, ,GRATUITO,GRATUITO,-18.50358009,-70.26082611,6kwn9pt,POINT (-70.26082611 -18.50358009),15101,Arica
3,2019,4,3,LICEO OCTAVIO PALMA PEREZ, ,69010100,1,15,AYP,151,15101,ARICA,151,ARICA,2,1,0,1,310,0,0,0,0,0,0,0,0,0,0,1,1,1, ,GRATUITO,GRATUITO,-18.47424316,-70.30826569,6kwnbhg,POINT (-70.30826569 -18.47424316),15101,Arica
4,2019,5,1,JOVINA NARANJO FERNANDEZ, ,69010100,1,15,AYP,151,15101,ARICA,151,ARICA,2,1,0,1,110,310,363,0,0,0,0,0,0,0,0,1,1,7,PLURALISTA,GRATUITO,GRATUITO,-18.47690392,-70.31345367,6ktyzur,POINT (-70.31345367 -18.47690392),15101,Arica
5,2019,7,8,L. POLI. ANTONIO VARAS DE LA BARRA, ,69010100,1,15,AYP,151,15101,ARICA,151,ARICA,2,1,0,1,410,510,610,0,0,0,0,0,0,0,0,1,1,1, ,GRATUITO,GRATUITO,-18.4761467,-70.28836823,6kwnbs9,POINT (-70.28836823 -18.4761467),15101,Arica
6,2019,8,6,COLEGIO INTEGRADO EDUARDO FREI MONTALVA, ,69010100,1,15,AYP,151,15101,ARICA,151,ARICA,2,1,0,1,10,110,310,0,0,0,0,0,0,0,0,1,1,7,LAICO,GRATUITO,GRATUITO,-18.48249054,-70.31758118,6ktyzgk,POINT (-70.31758118 -18.48249054),15101,Arica
7,2019,9,4,ESCUELA REPUBLICA DE ISRAEL, ,69010100,1,15,AYP,151,15101,ARICA,151,ARICA,2,1,0,1,10,110,0,0,0,0,0,0,0,0,0,1,1,2, ,GRATUITO,GRATUITO,-18.48684883,-70.30245209,6kwnb4x,POINT (-70.30245209 -18.48684883),15101,Arica
8,2019,10,8,ESCUELA REPUBLICA DE FRANCIA, ,69010100,1,15,AYP,151,15101,ARICA,151,ARICA,2,1,0,1,10,110,0,0,0,0,0,0,0,0,0,1,1,2, ,GRATUITO,GRATUITO,-18.47436523,-70.30904388,6kwnbhf,POINT (-70.30904388 -18.47436523),15101,Arica
9,2019,11,6,ESC. GRAL. PEDRO LAGOS MARCHANT, ,69010100,1,15,AYP,151,15101,ARICA,151,ARICA,2,1,0,1,10,110,0,0,0,0,0,0,0,0,0,1,1,7,LAICA,GRATUITO,GRATUITO,-18.49101639,-70.31155396,6kwnb1b,POINT (-70.31155396 -18.49101639),15101,Arica
10,2019,12,4,ESCUELA GRAL JOSE MIGUEL CARRERA, ,69010100,1,15,AYP,151,15101,ARICA,151,ARICA,2,1,0,1,10,110,0,0,0,0,0,0,0,0,0,1,1,1, ,GRATUITO,GRATUITO,-18.49192619,-70.2939682,6kwnb3t,POINT (-70.29396819999999 -18.49192619),15101,Arica
11,2019,13,2,ESCUELA MANUEL RODRIGUEZ ERDOYZA, ,69010100,1,15,AYP,151,15101,ARICA,151,ARICA,2,1,0,1,10,110,0,0,0,0,0,0,0,0,0,1,1,2, ,GRATUITO,GRATUITO,-18.48105621,-70.28479767,6kwnbes,POINT (-70.28479767 -18.48105621),15101,Arica
12,2019,14,0,ESCUELA ROMULO J. PENA MATURANA, ,69010100,1,15,AYP,151,15101,ARICA,151,ARICA,2,1,0,1,10,110,0,0,0,0,0,0,0,0,0,1,1,1, ,GRATUITO,GRATUITO,-18.48123741,-70.2897644,6kwnbe8,POINT (-70.2897644 -18.48123741),15101,Arica
13,2019,15,9,LICEO ARTISTICO DR. JUAN NOE CREVANI, ,69010100,1,15,AYP,151,15101,ARICA,151,ARICA,2,1,0,1,110,310,0,0,0,0,0,0,0,0,0,1,1,7,LAICA,GRATUITO,GRATUITO,-18.47138596,-70.300354,6kwnbm2,POINT (-70.300354 -18.47138596),15101,Arica
14,2019,16,7,ESCUELA REGIMIENTO RANCAGUA, ,69010100,1,15,AYP,151,15101,ARICA,151,ARICA,2,1,0,1,10,110,0,0,0,0,0,0,0,0,0,1,1,1, ,GRATUITO,GRATUITO,-18.47483444,-70.30878448,6kwnbhf,POINT (-70.30878448 -18.47483444),15101,Arica
15,2019,17,5,ESCUELA SUBTTE. LUIS CRUZ MARTINEZ, ,69010100,1,15,AYP,151,15101,ARICA,151,ARICA,2,1,0,1,10,110,0,0,0,0,0,0,0,0,0,1,1,2, ,GRATUITO,GRATUITO,-18.46726608,-70.29093933,6kwnbqp,POINT (-70.29093933 -18.46726608),15101,Arica
16,2019,18,3,ESC. COMTE. JUAN JOSE SAN MARTIN, ,69010100,1,15,AYP,151,15101,ARICA,151,ARICA,2,1,0,1,10,110,0,0,0,0,0,0,0,0,0,1,1,2, ,GRATUITO,GRATUITO,-18.47667503,-70.28778839,6kwnbs3,POINT (-70.28778839 -18.47667503),15101,Arica
17,2019,19,1,ESC. HUMBERTO VALENZUELA GARCIA, ,69010100,1,15,AYP,151,15101,ARICA,151,ARICA,2,1,0,1,10,110,0,0,0,0,0,0,0,0,0,1,1,2, ,GRATUITO,GRATUITO,-18.47465897,-70.29190826,6kwnbky,POINT (-70.29190826 -18.47465897),15101,Arica
18,2019,20,5,ESCUELA TUCAPEL, ,69010100,1,15,AYP,151,15101,ARICA,151,ARICA,2,1,0,1,10,110,0,0,0,0,0,0,0,0,0,1,1,2, ,GRATUITO,GRATUITO,-18.47982788,-70.29518127,6kwnb7u,POINT (-70.29518127 -18.47982788),15101,Arica
19,2019,21,3,ESCUELA CARLOS GUIRAO MASSIF, ,69010100,1,15,AYP,151,15101,ARICA,151,ARICA,2,1,0,0,0,0,0,0,0,0,0,0,0,0,0,0,3,1, ,GRATUITO,GRATUITO,-18.48379188,-70.30008008,6kwnb71,POINT (-70.30008008 -18.48379188),15101,Arica
20,2019,22,1,ESCUELA GABRIELA MISTRAL, ,69010100,1,15,AYP,151,15101,ARICA,151,ARICA,2,1,0,1,10,110,0,0,0,0,0,0,0,0,0,1,1,1, ,GRATUITO,GRATUITO,-18.44828606,-70.29064941,6kwp03x,POINT (-70.29064941 -18.44828606),15101,Arica
21,2019,25,6,COLEGIO CENTENARIO DE ARICA, ,69010100,1,15,AYP,151,15101,ARICA,151,ARICA,2,1,0,1,10,110,310,0,0,0,0,0,0,0,0,1,1,7,LAICO,GRATUITO,GRATUITO,-18.43999863,-70.29338074,6kwp07j,POINT (-70.29338074 -18.43999863),15101,Arica
22,2019,26,4,ESCUELA REPUBLICA DE ARGENTINA, ,69010100,1,15,AYP,151,15101,ARICA,151,ARICA,2,1,0,1,10,110,0,0,0,0,0,0,0,0,0,1,1,2, ,GRATUITO,GRATUITO,-18.4781208,-70.304039,6kwnbhn,POINT (-70.304039 -18.4781208),15101,Arica
23,2019,27,2,ESCUELA ESMERALDA, ,69010100,1,15,AYP,151,15101,ARICA,151,ARICA,2,1,0,1,10,110,0,0,0,0,0,0,0,0,0,1,1,2, ,GRATUITO,GRATUITO,-18.48301888,-70.30854034,6kwnb56,POINT (-70.30854033999999 -18.48301888),15101,Arica
24,2019,28,0,ESCUELA RICARDO SILVA ARRIAGADA, ,69010100,1,15,AYP,151,15101,ARICA,151,ARICA,2,1,0,1,10,110,165,363,0,0,0,0,0,0,0,1,1,2, ,GRATUITO,GRATUITO,-18.48506546,-70.29439545,6kwnb6v,POINT (-70.29439545 -18.48506546),15101,Arica
25,2019,29,9,ESCUELA AMERICA, ,69010100,1,15,AYP,151,15101,ARICA,151,ARICA,2,1,0,1,10,110,0,0,0,0,0,0,0,0,0,1,1,2, ,GRATUITO,GRATUITO,-18.47845078,-70.28304291,6kwnbsj,POINT (-70.28304291000001 -18.47845078),15101,Arica
26,2019,30,2,ESCUELA DR. RICARDO OLEA GUERRA, ,69010100,1,15,AYP,151,15101,ARICA,151,ARICA,2,1,0,0,212,215,216,0,0,0,0,0,0,0,0,1,1,1, ,GRATUITO,GRATUITO,-18.48061752,-70.28401184,6kwnbes,POINT (-70.28401184000001 -18.48061752),15101,Arica
27,2019,31,0,ESCUELA DARIO SALAS DIAZ, ,69010100,1,15,AYP,151,15101,ARICA,151,ARICA,2,1,1,1,10,110,0,0,0,0,0,0,0,0,0,1,1,1, ,GRATUITO,GRATUITO,-18.50065804,-70.2545929,6kwnc24,POINT (-70.25459290000001 -18.50065804),15101,Arica
28,2019,32,9,LICEO AGRICOLA JOSE ABELARDO NUNEZ M., ,69010100,1,15,AYP,151,15101,ARICA,151,ARICA,2,1,1,1,10,110,710,0,0,0,0,0,0,0,0,1,1,2, ,GRATUITO,GRATUITO,-18.51926422,-70.17874146,6kwneh9,POINT (-70.17874146 -18.51926422),15101,Arica
29,2019,33,7,ESCUELA CARLOS CONDELL DE LA HAZA, ,69010100,1,15,AYP,151,15101,ARICA,151,ARICA,2,1,1,1,10,110,0,0,0,0,0,0,0,0,0,1,1,7,LAICA,GRATUITO,GRATUITO,-18.41711426,-70.22584534,6kwp1zr,POINT (-70.22584534000001 -18.41711426),15101,Arica
30,2019,35,3,ESCUELA GRAL. MANUEL BAQUEDANO, ,69010100,1,15,AYP,151,15101,ARICA,151,ARICA,2,1,1,1,10,110,0,0,0,0,0,0,0,0,0,1,1,2, ,GRATUITO,GRATUITO,-18.45240021,-70.06770325,6kwpj8f,POINT (-70.06770324999999 -18.45240021),15101,Arica
31,2019,36,1,ESCUELA IGNACIO CARRERA PINTO, ,69010100,1,15,AYP,151,15101,ARICA,151,ARICA,2,1,0,1,10,110,0,0,0,0,0,0,0,0,0,1,1,1, ,GRATUITO,GRATUITO,-18.49695206,-70.28397369,6kwnb8s,POINT (-70.28397369 -18.49695206),15101,Arica
32,2019,38,8,ESCUELA ESPAÑA, ,69010100,1,15,AYP,151,15101,ARICA,151,ARICA,2,1,1,1,10,110,0,0,0,0,0,0,0,0,0,1,1,2, ,GRATUITO,GRATUITO,-18.55881882,-70.10072327,6kwnkv6,POINT (-70.10072327 -18.55881882),15101,Arica
33,2019,39,6,ESCUELA PAMPA ALGODONAL, ,69010100,1,15,AYP,151,15101,ARICA,151,ARICA,2,1,1,1,10,110,0,0,0,0,0,0,0,0,0,1,1,2, ,GRATUITO,GRATUITO,-18.57821274,-69.96517181,6kwnrcu,POINT (-69.96517181 -18.57821274),15101,Arica
34,2019,41,8,ESCUELA VALLE DE CHACA, ,69010100,1,15,AYP,151,15101,ARICA,151,ARICA,2,1,1,0,110,0,0,0,0,0,0,0,0,0,0,1,1,2, ,GRATUITO,GRATUITO,-18.82064247,-70.14038086,6kwhgvv,POINT (-70.14038085999999 -18.82064247),15101,Arica
35,2019,42,6,ESCUELA MOLINOS LLUTA, ,69010100,1,15,AYP,151,15101,ARICA,151,ARICA,2,1,1,0,110,0,0,0,0,0,0,0,0,0,0,1,1,1, ,GRATUITO,GRATUITO,-18.3817482,-69.94488525,6kwr2me,POINT (-69.94488525 -18.3817482),15101,Arica
36,2019,43,4,JARDIN INFANTIL CEPILLIN, ,65155997,1,15,AYP,151,15101,ARICA,151,ARICA,3,2,0,0,10,0,0,0,0,0,0,0,0,0,0,1,1,1, ,GRATUITO,GRATUITO,-18.439636,-70.290726,6kwp07p,POINT (-70.29072600000001 -18.439636),15101,Arica
38,2019,45,0,COLEGIO ITALIANO SANTA ANA, ,70072800,1,15,AYP,151,15101,ARICA,151,ARICA,3,2,0,0,10,110,310,0,0,0,0,0,0,0,0,1,1,2, ,GRATUITO,GRATUITO,-18.4830605,-70.31430183,6ktyzgq,POINT (-70.31430183000001 -18.4830605),15101,Arica
40,2019,47,7,J.  I. KURUMI, , ,9,15,AYP,151,15101,ARICA,151,ARICA,4,3,0,0,0,0,0,0,0,0,0,0,0,0,0,0,1,9, ,SIN INFORMACION,SIN INFORMACION,-18.492444,-70.2944415,6kwnb3t,POINT (-70.2944415 -18.492444),15101,Arica
41,2019,49,3,JARDIN INFANTIL PADRE LUIS GALLARDO, ,65095034,1,15,AYP,151,15101,ARICA,151,ARICA,3,2,0,0,10,0,0,0,0,0,0,0,0,0,0,1,1,2, ,GRATUITO,GRATUITO,-18.475018,-70.29024,6kwnbs8,POINT (-70.29024 -18.475018),15101,Arica
42,2019,50,7,COLEGIO ADVENTISTA DE ARICA, ,65102261,1,15,AYP,151,15101,ARICA,151,ARICA,3,2,0,1,110,310,0,0,0,0,0,0,0,0,0,1,1,7,ADVENTISTA,GRATUITO,GRATUITO,-18.49332083,-70.27077135,6kwnbcq,POINT (-70.27077135 -18.49332083),15101,Arica
43,2019,51,5,ESCUELA PARTICULAR REPÚBLICA DEL ECUADOR, ,76189122,1,15,AYP,151,15101,ARICA,151,ARICA,3,2,0,0,0,0,0,0,0,0,0,0,0,0,0,0,3,1, ,GRATUITO,GRATUITO,-18.4002612,-70.31498364,6ktzrfq,POINT (-70.31498363999999 -18.4002612),15101,Arica
44,2019,52,3,LICEO DOMINGO SANTA MARIA, ,65145467,1,15,AYP,151,15101,ARICA,151,ARICA,3,2,0,1,10,110,214,310,410,810,0,0,0,0,0,1,1,7,LAICA,GRATUITO,GRATUITO,-18.46862249,-70.30337532,6kwnbjy,POINT (-70.30337532 -18.46862249),15101,Arica
45,2019,55,8,JARDIN INFANTIL MONTESSORI GARDEN, ,65144309,1,15,AYP,151,15101,ARICA,151,ARICA,3,2,0,1,10,0,0,0,0,0,0,0,0,0,0,1,1,1, ,GRATUITO,GRATUITO,-18.48422,-70.30817,6kwnb55,POINT (-70.30817 -18.48422),15101,Arica
46,2019,56,6,COLEGIO SAN MARCOS DE ARICA, ,65378030,1,15,AYP,151,15101,ARICA,151,ARICA,3,2,0,1,10,110,310,0,0,0,0,0,0,0,0,1,1,2, ,GRATUITO,$50.001 A $100.000,-18.47074988,-70.30482369,6kwnbjt,POINT (-70.30482369000001 -18.47074988),15101,Arica
48,2019,58,2,JARDIN INFANTIL PETETE J.M. BORGOÐO, ,76207192,1,15,AYP,151,15101,ARICA,151,ARICA,3,2,0,0,10,0,0,0,0,0,0,0,0,0,0,1,1,2, ,GRATUITO,GRATUITO,-18.486109,-70.302956,6kwnb4w,POINT (-70.30295599999999 -18.486109),15101,Arica
49,2019,59,0,COLEGIO SAN JORGE,5662561, ,0,15,AYP,151,15101,ARICA,151,ARICA,4,3,0,0,10,110,310,0,0,0,0,0,0,0,0,1,1,2, ,MAS DE $100.000,MAS DE $100.000,-18.50215,-70.24618,6kwn9xb,POINT (-70.24618 -18.50215),15101,Arica
50,2019,60,4,COLEGIO ALEMAN DE ARICA, ,65144981,1,15,AYP,151,15101,ARICA,151,ARICA,3,2,0,0,10,110,310,0,0,0,0,0,0,0,0,1,1,1, ,GRATUITO,GRATUITO,-18.49203409,-70.2806874,6kwnb9x,POINT (-70.28068740000001 -18.49203409),15101,Arica
52,2019,66,3,JARDIN INFANTIL PLUTO, ,65144468,1,15,AYP,151,15101,ARICA,151,ARICA,3,2,0,0,10,0,0,0,0,0,0,0,0,0,0,1,1,2, ,GRATUITO,GRATUITO,-18.479057,-70.3034,6kwnb5y,POINT (-70.3034 -18.479057),15101,Arica
53,2019,67,1,ABRAHAM LINCOLN SCHOOL, ,65143272,1,15,AYP,151,15101,ARICA,151,ARICA,3,2,0,0,10,110,310,0,0,0,0,0,0,0,0,1,1,2, ,GRATUITO,$25.001 A $50.000,-18.4812282,-70.3187928,6ktyzge,POINT (-70.3187928 -18.4812282),15101,Arica
54,2019,69,8,JUNIOR COLLEGE,9437148, ,0,15,AYP,151,15101,ARICA,151,ARICA,4,3,0,0,10,110,310,0,0,0,0,0,0,0,0,1,1,1, ,MAS DE $100.000,MAS DE $100.000,-18.463913,-70.29144,6kwnbqx,POINT (-70.29143999999999 -18.463913),15101,Arica
8678,2019,10884,7,ESC. EDUCACION ESPECIAL LOS IBISCOS, ,65024466,1,15,AYP,151,15101,ARICA,151,ARICA,3,2,0,0,212,216,0,0,0,0,0,0,0,0,0,1,1,7,HUMANISTA CRISTIANA,GRATUITO,GRATUITO,-18.473162,-70.29724,6kwnbm5,POINT (-70.29724 -18.473162),15101,Arica
8682,2019,10892,8,NORTH AMERICAN COLLEGE, ,65145008,1,15,AYP,151,15101,ARICA,151,ARICA,3,2,0,1,10,110,310,0,0,0,0,0,0,0,0,1,1,2, ,GRATUITO,GRATUITO,-18.48215156,-70.31478354,6ktyzgq,POINT (-70.31478353999999 -18.48215156),15101,Arica
8683,2019,10893,6,ESCUELA EJERCITO DE SALVACION, ,65064565,1,15,AYP,151,15101,ARICA,151,ARICA,3,2,0,1,10,110,0,0,0,0,0,0,0,0,0,1,1,3, ,GRATUITO,GRATUITO,-18.44341469,-70.28948005,6kwp0d2,POINT (-70.28948004999999 -18.44341469),15101,Arica
8692,2019,10906,1,COLEGIO FORD COLLEGE, ,65147763,1,15,AYP,151,15101,ARICA,151,ARICA,3,2,0,0,10,110,310,0,0,0,0,0,0,0,0,1,1,2, ,GRATUITO,GRATUITO,-18.49449048,-70.29540101,6kwnb3h,POINT (-70.29540101000001 -18.49449048),15101,Arica
8695,2019,10911,8,LICEO PABLO NERUDA, ,69010100,1,15,AYP,151,15101,ARICA,151,ARICA,2,1,0,1,510,610,0,0,0,0,0,0,0,0,0,1,1,1, ,GRATUITO,GRATUITO,-18.44636526,-70.29385043,6kwp03v,POINT (-70.29385043000001 -18.44636526),15101,Arica
8697,2019,10913,4,CENTRO CAP.LAB. REINO DE BELGICA, ,69010100,1,15,AYP,151,15101,ARICA,151,ARICA,2,1,0,0,212,0,0,0,0,0,0,0,0,0,0,1,1,1, ,GRATUITO,GRATUITO,-18.473827,-70.29644,6kwnbkg,POINT (-70.29644 -18.473827),15101,Arica
8699,2019,10915,0,COLEGIO CARDENAL ANTONIO SAMORE, ,65149589,1,15,AYP,151,15101,ARICA,151,ARICA,3,2,0,1,10,110,310,0,0,0,0,0,0,0,0,1,1,2, ,GRATUITO,GRATUITO,-18.49182857,-70.27719147,6kwnbc9,POINT (-70.27719147000001 -18.49182857),15101,Arica
8702,2019,10918,5,TALLERES LAB. BALDOMERO LILLO, ,71744900,1,15,AYP,151,15101,ARICA,151,ARICA,3,2,0,0,0,0,0,0,0,0,0,0,0,0,0,0,3,1, ,GRATUITO,GRATUITO,-18.47571665,-70.30509829,6kwnbht,POINT (-70.30509829 -18.47571665),15101,Arica
9356,2019,12501,6,ESCUELA JORGE ALESSANDRI RODRIGUEZ, ,69010100,1,15,AYP,151,15101,ARICA,151,ARICA,2,1,0,1,10,110,0,0,0,0,0,0,0,0,0,1,1,1, ,GRATUITO,GRATUITO,-18.42812456,-70.29348071,6kwp0mm,POINT (-70.29348071 -18.42812456),15101,Arica
9357,2019,12502,4,COLEGIO  ANDINO,18335823, ,0,15,AYP,151,15101,ARICA,151,ARICA,4,3,0,0,10,110,310,0,0,0,0,0,0,0,0,1,1,1, ,MAS DE $100.000,MAS DE $100.000,-18.494181,-70.27498,6kwnbc5,POINT (-70.27498 -18.494181),15101,Arica
9360,2019,12505,9,COLEGIO PADRE LUIS GALLARDO, ,65095987,1,15,AYP,151,15101,ARICA,151,ARICA,3,2,0,1,110,165,363,0,0,0,0,0,0,0,0,1,1,2, ,GRATUITO,GRATUITO,-18.47198188,-70.29137022,6kwnbmr,POINT (-70.29137022 -18.47198188),15101,Arica
9366,2019,12512,1,JARDIN INFANTIL SAN NICOLAS, ,65155576,1,15,AYP,151,15101,ARICA,151,ARICA,3,2,0,0,10,0,0,0,0,0,0,0,0,0,0,1,1,2, ,GRATUITO,GRATUITO,-18.456861,-70.29845,6kwp024,POINT (-70.29845 -18.456861),15101,Arica
9379,2019,12536,9,ESCUELA CRISOLVI, ,71350000,1,15,AYP,151,15101,ARICA,151,ARICA,3,2,0,0,213,0,0,0,0,0,0,0,0,0,0,1,1,1, ,GRATUITO,GRATUITO,-18.475466,-70.3053,6kwnbht,POINT (-70.3053 -18.475466),15101,Arica
9380,2019,12537,7,JARDIN INFANTIL CASCANUECES, ,65145833,1,15,AYP,151,15101,ARICA,151,ARICA,3,2,0,0,10,0,0,0,0,0,0,0,0,0,0,1,1,2, ,GRATUITO,GRATUITO,-18.45042,-70.29798,6kwp034,POINT (-70.29798 -18.45042),15101,Arica
9382,2019,12539,3,COLEGIO SAN JUAN DE LA BLACHERE, ,65095985,1,15,AYP,151,15101,ARICA,151,ARICA,3,2,0,1,10,110,363,0,0,0,0,0,0,0,0,1,1,2, ,GRATUITO,GRATUITO,-18.48178365,-70.27818473,6kwnbg2,POINT (-70.27818473000001 -18.48178365),15101,Arica
9387,2019,12547,4,COLEGIO SAUCACHE, ,53330417,1,15,AYP,151,15101,ARICA,151,ARICA,3,2,0,0,10,110,310,410,0,0,0,0,0,0,0,1,1,2, ,GRATUITO,GRATUITO,-18.49292905,-70.29031314,6kwnb92,POINT (-70.29031313999999 -18.49292905),15101,Arica
9389,2019,12549,0,C.T. C.Y LENGUAJE HISPANO AMERICANO, ,65143988,1,15,AYP,151,15101,ARICA,151,ARICA,3,2,0,0,214,0,0,0,0,0,0,0,0,0,0,1,1,1, ,GRATUITO,GRATUITO,-18.489697,-70.29212,6kwnb6n,POINT (-70.29212 -18.489697),15101,Arica
9395,2019,12555,5,JARDIN INFANTIL AYMARA AYRAMPITO, ,65145744,1,15,AYP,151,15101,ARICA,151,ARICA,3,2,0,0,10,0,0,0,0,0,0,0,0,0,0,1,1,9, ,SIN INFORMACION,SIN INFORMACION,-18.481476,-70.29065,6kwnb7x,POINT (-70.29065 -18.481476),15101,Arica
9397,2019,12557,1,C.TRAST. DE LA COMUNIC. AMANECER, ,65144405,1,15,AYP,151,15101,ARICA,151,ARICA,3,2,0,0,214,0,0,0,0,0,0,0,0,0,0,1,1,2, ,GRATUITO,GRATUITO,-18.44988,-70.29636,6kwp037,POINT (-70.29636000000001 -18.44988),15101,Arica
9407,2019,12569,5,JARDIN INFANTIL BETHEL DE ARICA, ,65102261,1,15,AYP,151,15101,ARICA,151,ARICA,3,2,0,0,10,0,0,0,0,0,0,0,0,0,0,1,1,7,ADVENTISTA,GRATUITO,GRATUITO,-18.47899,-70.31041,6kwnbh1,POINT (-70.31041 -18.47899),15101,Arica
9408,2019,12570,9,COLEGIO ALTA CORDILLERA, ,65145462,1,15,AYP,151,15101,ARICA,151,ARICA,3,2,0,1,10,110,214,0,0,0,0,0,0,0,0,1,1,1, ,GRATUITO,GRATUITO,-18.48818265,-70.28679054,6kwnbd6,POINT (-70.28679054 -18.48818265),15101,Arica
9423,2019,12587,3,COLEGIO ARICA COLLEGE, ,65096354,1,15,AYP,151,15101,ARICA,151,ARICA,3,2,0,0,110,310,0,0,0,0,0,0,0,0,0,1,1,1, ,GRATUITO,GRATUITO,-18.46858865,-70.29968283,6kwnbmc,POINT (-70.29968282999999 -18.46858865),15101,Arica
9441,2019,12609,8,ESCUELA DE LENGUAJE INTI-PAXI, ,65144666,1,15,AYP,151,15101,ARICA,151,ARICA,3,2,0,0,214,0,0,0,0,0,0,0,0,0,0,1,1,2, ,GRATUITO,GRATUITO,-18.455822,-70.29839,6kwp024,POINT (-70.29839 -18.455822),15101,Arica
9442,2019,12610,1,LICEO INSTITUTO COMERCIAL DE ARICA, ,69010100,1,15,AYP,151,15101,ARICA,151,ARICA,2,1,0,1,410,463,510,610,0,0,0,0,0,0,0,1,1,1, ,GRATUITO,GRATUITO,-18.46298262,-70.29189774,6kwnbqz,POINT (-70.29189774 -18.46298262),15101,Arica
9453,2019,12622,5,JARDIN INFANTIL PEQUENO ARRAU, ,65155726,1,15,AYP,151,15101,ARICA,151,ARICA,3,2,0,0,10,0,0,0,0,0,0,0,0,0,0,1,1,7,CRISTIANA,GRATUITO,GRATUITO,-18.495955,-70.29679,6kwnb2g,POINT (-70.29679 -18.495955),15101,Arica
9460,2019,12630,6,COLEGIO LEONARDO DA VINCI, ,65145834,1,15,AYP,151,15101,ARICA,151,ARICA,3,2,0,1,10,110,165,363,510,610,0,0,0,0,0,1,1,7,LAICA,GRATUITO,GRATUITO,-18.45663265,-70.28296103,6kwp08j,POINT (-70.28296103 -18.45663265),15101,Arica
9485,2019,12658,6,LICEO AGR. TEC. PROF. PADRE FRANCISCO NAPOLI, ,65149601,1,15,AYP,151,15101,ARICA,151,ARICA,3,2,1,1,110,710,0,0,0,0,0,0,0,0,0,1,1,2, ,GRATUITO,GRATUITO,-18.39831308,-70.29203343,6kwp26w,POINT (-70.29203343 -18.39831308),15101,Arica
9486,2019,12659,4,COLEGIO DEL ALBA, ,65134208,1,15,AYP,151,15101,ARICA,151,ARICA,3,2,0,1,10,110,0,0,0,0,0,0,0,0,0,1,1,7,LAICO,GRATUITO,GRATUITO,-18.49688239,-70.29801096,6kwnb2d,POINT (-70.29801096 -18.49688239),15101,Arica
9517,2019,12694,2,COLEGIO MOSAICOS, ,65137908,1,15,AYP,151,15101,ARICA,151,ARICA,3,2,0,1,10,110,0,0,0,0,0,0,0,0,0,1,1,2, ,GRATUITO,GRATUITO,-18.46804922,-70.29651363,6kwnbmg,POINT (-70.29651363000001 -18.46804922),15101,Arica
9518,2019,12695,0,ESCUELA ESP DE LENGUAJE PARINA, ,65133857,1,15,AYP,151,15101,ARICA,151,ARICA,3,2,0,0,214,0,0,0,0,0,0,0,0,0,0,1,1,1, ,GRATUITO,GRATUITO,-18.492292,-70.29063,6kwnb3x,POINT (-70.29062999999999 -18.492292),15101,Arica
9519,2019,12696,9,LICEO TECNICO PROF. DE ADULTOS PUKARA, ,65121777,1,15,AYP,151,15101,ARICA,151,ARICA,3,2,1,0,563,663,763,0,0,0,0,0,0,0,0,1,1,1, ,GRATUITO,GRATUITO,-18.547844,-70.249565,6kwn3rm,POINT (-70.249565 -18.547844),15101,Arica
9528,2019,12705,1,JARDIN INFANTIL DON OSITO, ,65155905,1,15,AYP,151,15101,ARICA,151,ARICA,4,3,0,0,10,0,0,0,0,0,0,0,0,0,0,1,1,2, ,SIN INFORMACION,SIN INFORMACION,-18.490173,-70.299065,6kwnb3c,POINT (-70.299065 -18.490173),15101,Arica
9534,2019,12712,4,COLEGIO CHILE NORTE, ,65143176,1,15,AYP,151,15101,ARICA,151,ARICA,3,2,0,1,10,110,310,510,0,0,0,0,0,0,0,1,1,1, ,GRATUITO,GRATUITO,-18.44620708,-70.28491178,6kwp09u,POINT (-70.28491178 -18.44620708),15101,Arica
9535,2019,12713,2,CARDENAL RAUL SILVA HENRIQUEZ, ,65145028,1,15,AYP,151,15101,ARICA,151,ARICA,3,2,0,1,10,110,310,0,0,0,0,0,0,0,0,1,1,2, ,GRATUITO,GRATUITO,-18.43786054,-70.28782227,6kwp0e3,POINT (-70.28782227000001 -18.43786054),15101,Arica
9536,2019,12714,0,ESC.PARV.DE LENGUAJE DIVINO NINO JESUS, ,76137804,1,15,AYP,151,15101,ARICA,151,ARICA,3,2,0,0,0,0,0,0,0,0,0,0,0,0,0,0,1,1, ,GRATUITO,GRATUITO,-18.481121,-70.30532,6kwnb5t,POINT (-70.30531999999999 -18.481121),15101,Arica
9538,2019,12716,7,COLEGIO MIRAMAR, ,65095959,1,15,AYP,151,15101,ARICA,151,ARICA,3,2,0,1,10,110,310,410,510,610,0,0,0,0,0,1,1,2, ,GRATUITO,GRATUITO,-18.49698959,-70.30570742,6kwnb0s,POINT (-70.30570742 -18.49698959),15101,Arica
9542,2019,12720,5,COLEGIO ADOLFO BEYZAGA OVANDO, ,65137924,1,15,AYP,151,15101,ARICA,151,ARICA,3,2,0,1,10,110,310,0,0,0,0,0,0,0,0,1,1,2, ,GRATUITO,GRATUITO,-18.48312668,-70.29094985,6kwnb7p,POINT (-70.29094985 -18.48312668),15101,Arica
9543,2019,12721,3,JARDIN INFANTIL CASTILLLO DEL SABER, ,65153653,1,15,AYP,151,15101,ARICA,151,ARICA,3,2,0,0,10,0,0,0,0,0,0,0,0,0,0,1,1,9, ,GRATUITO,GRATUITO,-18.489902,-70.30295,6kwnb4n,POINT (-70.30295 -18.489902),15101,Arica
9548,2019,12727,2,ESCUELA ESPECIAL DE LENG. PIECECITOS DE NIÑO, ,65096114,1,15,AYP,151,15101,ARICA,151,ARICA,3,2,0,0,214,0,0,0,0,0,0,0,0,0,0,1,1,2, ,GRATUITO,GRATUITO,-18.482733,-70.315384,6ktyzgm,POINT (-70.31538399999999 -18.482733),15101,Arica
9554,2019,12733,7,JARDIN INFANTIL LA GRANJITA, ,65153617,1,15,AYP,151,15101,ARICA,151,ARICA,3,2,0,0,10,0,0,0,0,0,0,0,0,0,0,1,1,2, ,GRATUITO,GRATUITO,-18.469603,-70.29841,6kwnbmd,POINT (-70.29841 -18.469603),15101,Arica
9561,2019,12742,6,ESCUELA ESPECIAL DE LENGUAJE INTI - JALLU, ,65142857,1,15,AYP,151,15101,ARICA,151,ARICA,3,2,0,0,214,0,0,0,0,0,0,0,0,0,0,1,1,2, ,GRATUITO,GRATUITO,-18.48261,-70.318565,6ktyzg7,POINT (-70.31856500000001 -18.48261),15101,Arica
9566,2019,12748,5,ESCUELA ESP. DE LENG MANANTIAL DEL SABER, ,65145576,1,15,AYP,151,15101,ARICA,151,ARICA,3,2,0,0,214,0,0,0,0,0,0,0,0,0,0,1,1,1, ,GRATUITO,GRATUITO,-18.479128,-70.30105,6kwnb7b,POINT (-70.30105 -18.479128),15101,Arica
9568,2019,12750,7,LICEO DE ADULTOS JUNIOR COLLEGE, ,65143735,1,15,AYP,151,15101,ARICA,151,ARICA,3,2,0,0,363,0,0,0,0,0,0,0,0,0,0,1,1,1, ,GRATUITO,GRATUITO,-18.46392,-70.29144,6kwnbqx,POINT (-70.29143999999999 -18.46392),15101,Arica
11431,2019,16775,4,ESCUELA ESPECIAL DE LENGUAJE PEQUEÑO SAFARI, ,65153473,1,15,AYP,151,15101,ARICA,151,ARICA,3,2,0,0,214,0,0,0,0,0,0,0,0,0,0,1,1,9, ,GRATUITO,GRATUITO,-18.44772,-70.28802,6kwp099,POINT (-70.28802 -18.44772),15101,Arica
12495,2019,20334,3,ESCUELA ESPECIAL DE LENGUAJE ESTRELLITA DE BELÉN, ,65134211,1,15,AYP,151,15101,ARICA,151,ARICA,3,2,0,0,214,0,0,0,0,0,0,0,0,0,0,1,1,9, ,GRATUITO,GRATUITO,-18.48916,-70.3033,6kwnb4n,POINT (-70.30329999999999 -18.48916),15101,Arica
12608,2019,20464,1,LICEO PRESIDENTE CARLOS IBÁÑEZ DEL CAMPO, ,65135331,1,15,AYP,151,15101,ARICA,151,ARICA,3,2,0,0,363,0,0,0,0,0,0,0,0,0,0,1,1,9, ,GRATUITO,GRATUITO,-18.483129,-70.2909495,6kwnb7p,POINT (-70.2909495 -18.483129),15101,Arica
12659,2019,20533,8,ESCUELA ESPECIAL DE LENGUAJE MIS PRIMEROS PASITOS, ,65144353,1,15,AYP,151,15101,ARICA,151,ARICA,3,2,0,0,214,0,0,0,0,0,0,0,0,0,0,1,1,9, ,SIN INFORMACION,SIN INFORMACION,-18.48983,-70.29339,6kwnb6j,POINT (-70.29339 -18.48983),15101,Arica
12680,2019,20691,1,ESCUELA DE EDUCACIÓN ESPECIAL KANTATURU, ,70015120,1,15,AYP,151,15101,ARICA,151,ARICA,3,2,0,0,212,0,0,0,0,0,0,0,0,0,0,1,1,9, ,GRATUITO,GRATUITO,-18.46823,-70.2907,6kwnbmz,POINT (-70.2907 -18.46823),15101,Arica
15274,2019,30001,2,THE INTERNATIONAL SCHOOL ARICA, ,65145588,1,15,AYP,151,15101,ARICA,151,ARICA,3,2,0,1,10,110,310,0,0,0,0,0,0,0,0,1,1,1, ,GRATUITO,GRATUITO,-18.46400952,-70.29951025,6kwnbq9,POINT (-70.29951025 -18.46400952),15101,Arica
15275,2019,30002,0,COLEGIO EL ROBLE, ,65126101,1,15,AYP,151,15101,ARICA,151,ARICA,3,2,0,0,10,110,0,0,0,0,0,0,0,0,0,1,1,1, ,GRATUITO,GRATUITO,-18.43505651,-70.29270386,6kwp0kn,POINT (-70.29270386 -18.43505651),15101,Arica
15276,2019,30003,9,COLEGIO JUAN PABLO II, ,65855580,1,15,AYP,151,15101,ARICA,151,ARICA,3,2,0,1,10,110,310,0,0,0,0,0,0,0,0,1,1,2, ,GRATUITO,GRATUITO,-18.39702645,-70.31975644,6ktzrff,POINT (-70.31975644000001 -18.39702645),15101,Arica
15277,2019,30004,7,ESCUELA ESPECIAL DE LENGUAJE ARCO IRIS, ,65096006,1,15,AYP,151,15101,ARICA,151,ARICA,3,2,0,0,214,0,0,0,0,0,0,0,0,0,0,1,1,1, ,GRATUITO,GRATUITO,-18.4712,-70.291985,6kwnbmq,POINT (-70.291985 -18.4712),15101,Arica
15278,2019,30005,5,COLEGIO MARIA MONTESSORI, ,65144315,1,15,AYP,151,15101,ARICA,151,ARICA,3,2,0,1,110,0,0,0,0,0,0,0,0,0,0,1,1,2, ,GRATUITO,GRATUITO,-18.47963942,-70.30504448,6kwnb5v,POINT (-70.30504448000001 -18.47963942),15101,Arica
15279,2019,30006,3,COLEGIO HISPANO, ,53330420,1,15,AYP,151,15101,ARICA,151,ARICA,3,2,0,1,10,110,0,0,0,0,0,0,0,0,0,1,1,1, ,GRATUITO,GRATUITO,-18.49106215,-70.28379363,6kwnb9u,POINT (-70.28379363000001 -18.49106215),15101,Arica
15280,2019,30007,1,ESC. ESP. LENG. LA GRANJITA SCHOOL, ,65153624,1,15,AYP,151,15101,ARICA,151,ARICA,3,2,0,0,214,0,0,0,0,0,0,0,0,0,0,1,1,2, ,GRATUITO,GRATUITO,-18.46991,-70.299835,6kwnbm9,POINT (-70.299835 -18.46991),15101,Arica
15281,2019,30009,8,ESC.ESP.LENG.DIVINO NIÑO JESUS DE ARICA, ,65149353,1,15,AYP,151,15101,ARICA,151,ARICA,3,2,0,0,214,0,0,0,0,0,0,0,0,0,0,1,1,1, ,GRATUITO,GRATUITO,-18.478952,-70.29894,6kwnbk1,POINT (-70.29894 -18.478952),15101,Arica
15282,2019,30010,1,ESCUELA ESPECIAL DE LENGUAJE LUCERITO MUSIKAL, ,65143547,1,15,AYP,151,15101,ARICA,151,ARICA,3,2,0,0,214,0,0,0,0,0,0,0,0,0,0,1,1,3, ,GRATUITO,GRATUITO,-18.487993,-70.29806,6kwnb66,POINT (-70.29806000000001 -18.487993),15101,Arica
15283,2019,30012,8,COLEGIO AMARU ANKU SCHOOL, ,65155683,1,15,AYP,151,15101,ARICA,151,ARICA,3,2,0,1,110,0,0,0,0,0,0,0,0,0,0,1,1,2, ,GRATUITO,GRATUITO,-18.46965793,-70.29834758,6kwnbmd,POINT (-70.29834758 -18.46965793),15101,Arica
15284,2019,30013,6,THE AZAPA VALLEY SCHOOL,13995438, ,0,15,AYP,151,15101,ARICA,151,ARICA,4,3,0,0,10,110,310,0,0,0,0,0,0,0,0,1,1,1, ,MAS DE $100.000,MAS DE $100.000,-18.49992,-70.25711,6kwnc20,POINT (-70.25711 -18.49992),15101,Arica
15533,2019,31303,3,ESCUELA ESPECIAL DE LENGUAJE AMANK`AY, ,65144899,1,15,AYP,151,15101,ARICA,151,ARICA,3,2,0,0,214,0,0,0,0,0,0,0,0,0,0,1,1,9, ,SIN INFORMACION,SIN INFORMACION,-18.500628,-70.31212,6kwnb00,POINT (-70.31211999999999 -18.500628),15101,Arica
15534,2019,31304,1,ESCUELA ESPECIAL DE LENGUAJE RELMU, ,65096011,1,15,AYP,151,15101,ARICA,151,ARICA,3,2,0,0,214,0,0,0,0,0,0,0,0,0,0,1,1,9, ,GRATUITO,GRATUITO,-18.436016,-70.290924,6kwp07z,POINT (-70.290924 -18.436016),15101,Arica
15535,2019,31306,8,COLEGIO FINÉS RELMU, ,65096006,1,15,AYP,151,15101,ARICA,151,ARICA,3,2,0,1,110,0,0,0,0,0,0,0,0,0,0,1,1,1, ,GRATUITO,GRATUITO,-18.470991,-70.29207,6kwnbmq,POINT (-70.29207 -18.470991),15101,Arica
15537,2019,31308,4,ESCUELA ESPECIAL DE LENGUAJE PEQUEÑOS ESTRATEGAS, ,65145101,1,15,AYP,151,15101,ARICA,151,ARICA,3,2,0,0,214,0,0,0,0,0,0,0,0,0,0,1,1,1, ,GRATUITO,GRATUITO,-18.436848,-70.28756,6kwp0ed,POINT (-70.28756 -18.436848),15101,Arica
15838,2019,40168,4,ESC.ESP.LENG LOS BENJAMINES, ,65134001,1,15,AYP,151,15101,ARICA,151,ARICA,3,2,0,0,214,0,0,0,0,0,0,0,0,0,0,1,1,1, ,GRATUITO,GRATUITO,-18.496752,-70.29537,6kwnb2u,POINT (-70.29537000000001 -18.496752),15101,Arica
15839,2019,40169,2,COLEGIO DIFERENCIAL COLIBRÍ, ,65095201,1,15,AYP,151,15101,ARICA,151,ARICA,3,2,0,0,212,0,0,0,0,0,0,0,0,0,0,1,1,1, ,GRATUITO,GRATUITO,-18.505793,-70.29449,6kwn8rj,POINT (-70.29449 -18.505793),15101,Arica
15842,2019,40172,2,ESCUELA ESP. DE LENGUAJE ILLAWARA, ,65138136,1,15,AYP,151,15101,ARICA,151,ARICA,3,2,0,0,214,0,0,0,0,0,0,0,0,0,0,1,1,1, ,GRATUITO,GRATUITO,-18.514835,-70.293594,6kwn8mm,POINT (-70.293594 -18.514835),15101,Arica
15883,2019,40225,7,ESC. ESP. LENG. SEMILLITAS DE AMOR, ,65096298,1,15,AYP,151,15101,ARICA,151,ARICA,3,2,0,0,214,0,0,0,0,0,0,0,0,0,0,1,1,2, ,GRATUITO,GRATUITO,-18.523878,-70.29271,6kwn87y,POINT (-70.29271 -18.523878),15101,Arica
15886,2019,40230,3,COLEGIO TECNOLOGICO DON BOSCO DE ARICA, ,65097239,1,15,AYP,151,15101,ARICA,151,ARICA,3,2,0,1,10,110,310,510,0,0,0,0,0,0,0,1,1,2, ,GRATUITO,GRATUITO,-18.437288,-70.28587,6kwp0ee,POINT (-70.28587 -18.437288),15101,Arica
15899,2019,40244,3,ESCUELA ESPECIAL DE LENGUAJE ILLIMANI, ,65143603,1,15,AYP,151,15101,ARICA,151,ARICA,3,2,0,0,214,0,0,0,0,0,0,0,0,0,0,1,1,1, ,GRATUITO,GRATUITO,-18.446333,-70.28499,6kwp09u,POINT (-70.28498999999999 -18.446333),15101,Arica
15900,2019,40245,1,ESCUELA ESPECIAL DE LENGUAJE AMAPOLAS, ,65134839,1,15,AYP,151,15101,ARICA,151,ARICA,3,2,0,0,214,0,0,0,0,0,0,0,0,0,0,1,1,1, ,GRATUITO,GRATUITO,-18.455374,-70.284096,6kwp08k,POINT (-70.28409600000001 -18.455374),15101,Arica
15928,2019,40275,3,ESCUELA ESPECIAL DE LENGUAJE MATICES, ,65135009,1,15,AYP,151,15101,ARICA,151,ARICA,3,2,0,0,214,0,0,0,0,0,0,0,0,0,0,1,1,1, ,GRATUITO,GRATUITO,-18.47017,-70.29059,6kwnbmx,POINT (-70.29058999999999 -18.47017),15101,Arica
15978,2019,40332,6,ESC ESP DE LENGUAJE ENTRETENIÑOS, ,65145089,1,15,AYP,151,15101,ARICA,151,ARICA,3,2,0,0,214,0,0,0,0,0,0,0,0,0,0,1,1,1, ,GRATUITO,GRATUITO,-18.484467,-70.30296,6kwnb5n,POINT (-70.30296 -18.484467),15101,Arica
16003,2019,40368,7,ESC ESP DE LENG SENDERO DEL SABER, ,65144458,1,15,AYP,151,15101,ARICA,151,ARICA,3,2,0,0,214,0,0,0,0,0,0,0,0,0,0,1,1,2, ,GRATUITO,GRATUITO,-18.495466,-70.3059,6kwnb1h,POINT (-70.30589999999999 -18.495466),15101,Arica
16010,2019,40377,6,ESC ESP DE LENGUAJE GOTITAS DE ROCIO, ,65149087,1,15,AYP,151,15101,ARICA,151,ARICA,3,2,0,0,214,0,0,0,0,0,0,0,0,0,0,1,1,7,VALORICA,GRATUITO,GRATUITO,-18.489786,-70.29329,6kwnb6j,POINT (-70.29329 -18.489786),15101,Arica
16017,2019,40384,9,ESCUELA ESPECIAL DE LENGUAJE MATEITO´S, ,65143765,1,15,AYP,151,15101,ARICA,151,ARICA,3,2,0,0,214,0,0,0,0,0,0,0,0,0,0,1,1,2, ,GRATUITO,GRATUITO,-18.487494,-70.30333,6kwnb4q,POINT (-70.30333 -18.487494),15101,Arica
16020,2019,40387,3,JARDIN INFANTIL Y SALACUNA MI PEQUEÑO GENIO, ,76119636,1,15,AYP,151,15101,ARICA,151,ARICA,3,2,0,0,10,0,0,0,0,0,0,0,0,0,0,1,1,1, ,GRATUITO,GRATUITO,-18.483597,-70.310005,6kwnb51,POINT (-70.310005 -18.483597),15101,Arica
16026,2019,40395,4,COLEGIO JOHN WALL HOLCOMB, ,65145832,1,15,AYP,151,15101,ARICA,151,ARICA,3,2,0,0,110,0,0,0,0,0,0,0,0,0,0,1,1,1, ,GRATUITO,GRATUITO,-18.447836,-70.2959,6kwp03s,POINT (-70.2959 -18.447836),15101,Arica
16032,2019,40401,2,ESC ESP DE LENGUAJE EL DESPERTAR, ,65149601,1,15,AYP,151,15101,ARICA,151,ARICA,3,2,0,0,214,0,0,0,0,0,0,0,0,0,0,1,1,1, ,GRATUITO,GRATUITO,-18.486916,-70.28591,6kwnbde,POINT (-70.28591 -18.486916),15101,Arica
55,2019,70,1,ESCUELA VALLE DE ESQUINA, ,69251000,1,15,AYP,151,15102,CAMARONES,151,ARICA,2,1,1,0,110,0,0,0,0,0,0,0,0,0,0,1,1,7,MULTICULTURAL,GRATUITO,GRATUITO,-18.93621826,-69.530159,6kws3bc,POINT (-69.530159 -18.93621826),15102,Camarones
56,2019,72,8,LICEO VALLE DE CODPA, ,69251000,1,15,AYP,151,15102,CAMARONES,151,ARICA,2,1,1,0,110,710,0,0,0,0,0,0,0,0,0,1,1,1, ,GRATUITO,GRATUITO,-18.832901,-69.74458313,6kwkugt,POINT (-69.74458313 -18.832901),15102,Camarones
57,2019,73,6,ESCUELA VALLE DE COBIJA, ,69251000,1,15,AYP,151,15102,CAMARONES,151,ARICA,2,1,1,0,110,0,0,0,0,0,0,0,0,0,0,1,1,1, ,GRATUITO,GRATUITO,-18.73989105,-69.58323669,6kwt2se,POINT (-69.58323669000001 -18.73989105),15102,Camarones
58,2019,74,4,ESCUELA VALLE DE CAMARONES, ,69251000,1,15,AYP,151,15102,CAMARONES,151,ARICA,2,1,1,0,110,0,0,0,0,0,0,0,0,0,0,1,1,2, ,GRATUITO,GRATUITO,-19.00991631,-69.86013794,6kw7f73,POINT (-69.86013794 -19.00991631),15102,Camarones
59,2019,75,2,ESCUELA VALLE DE GUANACAGUA, ,69251000,1,15,AYP,151,15102,CAMARONES,151,ARICA,2,1,1,0,110,0,0,0,0,0,0,0,0,0,0,1,1,2, ,GRATUITO,GRATUITO,-18.82276535,-69.71333313,6kwkvtk,POINT (-69.71333313 -18.82276535),15102,Camarones
60,2019,76,0,ESCUELA VALLE DE CUYA, ,69251000,1,15,AYP,151,15102,CAMARONES,151,ARICA,2,1,1,0,110,0,0,0,0,0,0,0,0,0,0,1,1,2, ,GRATUITO,GRATUITO,-19.16016006,-70.17948914,6kw4gpb,POINT (-70.17948914 -19.16016006),15102,Camarones
8680,2019,10887,1,ESCUELA DE CHITITA, ,69251000,1,15,AYP,151,15102,CAMARONES,151,ARICA,2,1,1,0,110,0,0,0,0,0,0,0,0,0,0,1,1,2, ,GRATUITO,GRATUITO,-18.82287231,-69.68486249,6kwkym3,POINT (-69.68486249 -18.82287231),15102,Camarones
8685,2019,10897,9,ESCUELA DE ILLAPATA, ,69251000,1,15,AYP,151,15102,CAMARONES,151,ARICA,2,1,1,0,110,0,0,0,0,0,0,0,0,0,0,1,1,2, ,GRATUITO,GRATUITO,-18.94981866,-69.49459339,6kws4w7,POINT (-69.49459339000001 -18.94981866),15102,Camarones
8696,2019,10912,6,ESCUELA VALLE DE PARCOHAYLLA, ,69251000,1,15,AYP,151,15102,CAMARONES,151,ARICA,2,1,1,0,110,0,0,0,0,0,0,0,0,0,0,1,1,7,EVÁNGELICA,GRATUITO,GRATUITO,-18.90061998,-69.25041665,6kwu2pj,POINT (-69.25041665000001 -18.90061998),15102,Camarones
61,2019,78,7,LICEO GRANADEROS, ,69250800,1,15,AYP,152,15201,PUTRE,151,ARICA,2,1,1,1,10,110,710,0,0,0,0,0,0,0,0,1,1,2, ,GRATUITO,GRATUITO,-18.19582367,-69.5619278,6ky83pd,POINT (-69.56192780000001 -18.19582367),15201,Putre
62,2019,79,5,ESCUELA EL MARQUEZ, ,69250800,1,15,AYP,152,15201,PUTRE,151,ARICA,2,1,1,0,110,0,0,0,0,0,0,0,0,0,0,1,1,7,PLURALISTA,GRATUITO,GRATUITO,-18.58071518,-69.49375916,6kww69k,POINT (-69.49375916 -18.58071518),15201,Putre
63,2019,81,7,ESCUELA PAYACHATAS, ,69250800,1,15,AYP,152,15201,PUTRE,151,ARICA,2,1,1,0,110,0,0,0,0,0,0,0,0,0,0,1,1,7,PLURALISTA,GRATUITO,GRATUITO,-18.05440331,-69.20101166,6kyc333,POINT (-69.20101166000001 -18.05440331),15201,Putre
64,2019,82,5,ESCUELA SAN FRANCISCO DE ASIS, ,69250800,1,15,AYP,152,15201,PUTRE,151,ARICA,2,1,1,0,110,0,0,0,0,0,0,0,0,0,0,1,1,2, ,GRATUITO,GRATUITO,-18.26880074,-69.59646606,6ky8063,POINT (-69.59646606 -18.26880074),15201,Putre
65,2019,83,3,ESCUELA COTA COTANI, ,69250800,1,15,AYP,152,15201,PUTRE,151,ARICA,2,1,1,0,110,0,0,0,0,0,0,0,0,0,0,1,1,2, ,GRATUITO,GRATUITO,-18.52192497,-69.22052765,6kwy8u5,POINT (-69.22052764999999 -18.52192497),15201,Putre
66,2019,84,1,ESCUELA LOS ALAMOS, ,69250800,1,15,AYP,152,15201,PUTRE,151,ARICA,2,1,1,0,110,0,0,0,0,0,0,0,0,0,0,1,1,2, ,GRATUITO,GRATUITO,-18.19634819,-69.55921936,6ky83pk,POINT (-69.55921936 -18.19634819),15201,Putre
67,2019,86,8,ESCUELA SAN SANTIAGO DE BELEN, ,69250800,1,15,AYP,152,15201,PUTRE,151,ARICA,2,1,1,0,110,0,0,0,0,0,0,0,0,0,0,1,1,2, ,GRATUITO,GRATUITO,-18.46778488,-69.51489258,6kwwfnh,POINT (-69.51489257999999 -18.46778488),15201,Putre
68,2019,87,6,ESCUELA ANCOLACANE, ,69250700,1,15,AYP,152,15202,GENERAL LAGOS,151,ARICA,2,1,1,0,110,0,0,0,0,0,0,0,0,0,0,1,1,2, ,GRATUITO,GRATUITO,-17.85471535,-69.60613251,6kyd2jd,POINT (-69.60613250999999 -17.85471535),15202,General Lagos
69,2019,88,4,ESCUELA ALCERRECA, ,69250700,1,15,AYP,152,15202,GENERAL LAGOS,151,ARICA,2,1,1,0,110,0,0,0,0,0,0,0,0,0,0,1,1,2, ,GRATUITO,GRATUITO,-17.99433517,-69.70589447,6ky3tu1,POINT (-69.70589447 -17.99433517),15202,General Lagos
70,2019,89,2,ESCUELA HUMAPALCA, ,69250700,1,15,AYP,152,15202,GENERAL LAGOS,151,ARICA,2,1,1,0,110,0,0,0,0,0,0,0,0,0,0,1,1,2, ,GRATUITO,GRATUITO,-17.83438873,-69.70278168,6ky6tc7,POINT (-69.70278168 -17.83438873),15202,General Lagos
71,2019,90,6,ESCUELA INTERNADO VISVIRI, ,69250700,1,15,AYP,152,15202,GENERAL LAGOS,151,ARICA,2,1,1,0,110,0,0,0,0,0,0,0,0,0,0,1,1,2, ,GRATUITO,GRATUITO,-17.59488487,-69.4811554,6kyefuv,POINT (-69.48115540000001 -17.59488487),15202,General Lagos
72,2019,91,4,ESCUELA COSAPILLA, ,69250700,1,15,AYP,152,15202,GENERAL LAGOS,151,ARICA,2,1,1,0,110,0,0,0,0,0,0,0,0,0,0,1,1,2, ,GRATUITO,GRATUITO,-17.767959,-69.412081,6kydumr,POINT (-69.412081 -17.767959),15202,General Lagos
73,2019,92,2,ESCUELA CHISLLUMA, ,69250700,1,15,AYP,152,15202,GENERAL LAGOS,151,ARICA,2,1,1,0,110,0,0,0,0,0,0,0,0,0,0,1,1,2, ,GRATUITO,GRATUITO,-17.69676781,-69.68830109,6ky7q4q,POINT (-69.68830109 -17.69676781),15202,General Lagos
74,2019,93,0,ESCUELA CHUJLLUTA, ,69250700,1,15,AYP,152,15202,GENERAL LAGOS,151,ARICA,2,1,1,0,110,0,0,0,0,0,0,0,0,0,0,1,1,2, ,GRATUITO,GRATUITO,-17.89941597,-69.34921265,6kydjvt,POINT (-69.34921265 -17.89941597),15202,General Lagos
75,2019,94,9,ESCUELA GUACOYO, ,69250700,1,15,AYP,152,15202,GENERAL LAGOS,151,ARICA,2,1,1,0,110,0,0,0,0,0,0,0,0,0,0,1,1,2, ,GRATUITO,GRATUITO,-17.76012802,-69.34494781,6kydynb,POINT (-69.34494780999999 -17.76012802),15202,General Lagos
76,2019,95,7,ESCUELA COLPITAS, ,69250700,1,15,AYP,152,15202,GENERAL LAGOS,151,ARICA,2,1,1,0,110,0,0,0,0,0,0,0,0,0,0,1,1,2, ,GRATUITO,GRATUITO,-17.95693779,-69.45362854,6ky9ge1,POINT (-69.45362854 -17.95693779),15202,General Lagos
77,2019,97,3,INST. COM. DE IQUIQUE BALDOMERO WOLNITZKY, ,70938800,1,1,TPCA,11,1101,IQUIQUE,11,IQUIQUE,1,1,0,1,410,510,810,0,0,0,0,0,0,0,0,1,1,1, ,$1.000 A $10.000,GRATUITO,-20.21983528,-70.15323639,6kqhgx5,POINT (-70.15323639 -20.21983528),1101,Iquique
81,2019,102,3,ESC.EDUC.ESPECIAL FLOR DEL INCA, ,70938800,1,1,TPCA,11,1101,IQUIQUE,11,IQUIQUE,1,1,0,0,212,216,0,0,0,0,0,0,0,0,0,1,1,1, ,GRATUITO,GRATUITO,-20.24097252,-70.13935089,6kqhggn,POINT (-70.13935089 -20.24097252),1101,Iquique
82,2019,103,1,ESC.EDUC.GRAL.BAS.Y DES.ART.VIOLETA PARRA, ,70938800,1,1,TPCA,11,1101,IQUIQUE,11,IQUIQUE,1,1,0,1,110,310,0,0,0,0,0,0,0,0,0,1,1,2, ,GRATUITO,GRATUITO,-20.22109604,-70.13816833,6kqhgyy,POINT (-70.13816833 -20.22109604),1101,Iquique
83,2019,105,8,CENTRO DE CAPACITACION LABORAL, ,70938800,1,1,TPCA,11,1101,IQUIQUE,11,IQUIQUE,1,1,0,0,212,218,0,0,0,0,0,0,0,0,0,1,1,1, ,GRATUITO,GRATUITO,-20.24172211,-70.13650513,6kqhu50,POINT (-70.13650513 -20.24172211),1101,Iquique
84,2019,106,6,INSTITUTO DEL MAR ALMIRANTE CARLOS CONDEL, ,71142500,1,1,TPCA,11,1101,IQUIQUE,11,IQUIQUE,5,4,0,0,110,310,510,810,0,0,0,0,0,0,0,1,1,2, ,GRATUITO,GRATUITO,-20.293957,-70.127608,6kqhs1w,POINT (-70.127608 -20.293957),1101,Iquique
85,2019,107,4,LICEO LIBERT. GRAL.BERNARDO O´HIGGINS, ,70938800,1,1,TPCA,11,1101,IQUIQUE,11,IQUIQUE,1,1,0,1,110,310,0,0,0,0,0,0,0,0,0,1,1,1, ,GRATUITO,GRATUITO,-20.21974373,-70.15238953,6kqhgxh,POINT (-70.15238952999999 -20.21974373),1101,Iquique
86,2019,108,2,LICEO POLITEC. JOSE GUTIERREZ DE LA FUEN, ,70938800,1,1,TPCA,11,1101,IQUIQUE,11,IQUIQUE,1,1,0,1,510,610,0,0,0,0,0,0,0,0,0,1,1,7,LAICO,GRATUITO,GRATUITO,-20.22579575,-70.14872742,6kqhgwp,POINT (-70.14872742 -20.22579575),1101,Iquique
87,2019,109,0,COLEGIO DEPORTIVO TEC. PROF. ELENA DUVAUCHELLE CABEZON, ,70938800,1,1,TPCA,11,1101,IQUIQUE,11,IQUIQUE,1,1,0,1,110,310,410,510,610,0,0,0,0,0,0,1,1,1, ,GRATUITO,GRATUITO,-20.21695137,-70.15338135,6kqhgxe,POINT (-70.15338135 -20.21695137),1101,Iquique
88,2019,110,4,LICEO BICENTENARIO DOMINGO SANTA MARIA DE IQQ., ,70938800,1,1,TPCA,11,1101,IQUIQUE,11,IQUIQUE,1,1,0,1,10,110,310,0,0,0,0,0,0,0,0,1,1,7,LAICA,GRATUITO,GRATUITO,-20.21758842,-70.14691162,6kqhgz8,POINT (-70.14691162 -20.21758842),1101,Iquique
89,2019,111,2,ESCUELA GABRIELA MISTRAL, ,70938800,1,1,TPCA,11,1101,IQUIQUE,11,IQUIQUE,1,1,0,1,10,110,0,0,0,0,0,0,0,0,0,1,1,1, ,GRATUITO,GRATUITO,-20.22589111,-70.14141083,6kqhgvu,POINT (-70.14141083 -20.22589111),1101,Iquique
90,2019,112,0,ESCUELA EDUARDO LLANOS, ,70938800,1,1,TPCA,11,1101,IQUIQUE,11,IQUIQUE,1,1,0,1,10,110,0,0,0,0,0,0,0,0,0,1,1,2, ,GRATUITO,GRATUITO,-20.21447563,-70.13585663,6kqjh00,POINT (-70.13585663000001 -20.21447563),1101,Iquique
91,2019,113,9,ESCUELA ALMIRANTE PATRICIO LYNCH, ,70938800,1,1,TPCA,11,1101,IQUIQUE,11,IQUIQUE,1,1,0,1,10,110,0,0,0,0,0,0,0,0,0,1,1,2, ,GRATUITO,GRATUITO,-20.23204422,-70.13769531,6kqhguz,POINT (-70.13769531 -20.23204422),1101,Iquique
92,2019,114,7,ESCUELA PLACIDO VILLARROEL, ,70938800,1,1,TPCA,11,1101,IQUIQUE,11,IQUIQUE,1,1,0,1,10,110,0,0,0,0,0,0,0,0,0,1,1,7,ECUMENICA,GRATUITO,GRATUITO,-20.22023582,-70.14411163,6kqhgz4,POINT (-70.14411163 -20.22023582),1101,Iquique
93,2019,115,5,ESCUELA JAVIERA CARRERA VERDUGO, ,70938800,1,1,TPCA,11,1101,IQUIQUE,11,IQUIQUE,1,1,0,0,0,0,0,0,0,0,0,0,0,0,0,0,2,2, ,GRATUITO,GRATUITO,-20.21947136,-70.1519483,6kqhgxh,POINT (-70.1519483 -20.21947136),1101,Iquique
94,2019,116,3,COLEGIO REPUBLICA DE CROACIA, ,70938800,1,1,TPCA,11,1101,IQUIQUE,11,IQUIQUE,1,1,0,1,10,110,0,0,0,0,0,0,0,0,0,1,1,2, ,GRATUITO,GRATUITO,-20.22727966,-70.13484955,6kqhuj9,POINT (-70.13484955 -20.22727966),1101,Iquique
95,2019,117,1,ESCUELA PAULA JARAQUEMADA ALQUIZAR, ,70938800,1,1,TPCA,11,1101,IQUIQUE,11,IQUIQUE,1,1,0,1,10,110,214,0,0,0,0,0,0,0,0,1,1,2, ,GRATUITO,GRATUITO,-20.22039795,-70.14624786,6kqhgyc,POINT (-70.14624786 -20.22039795),1101,Iquique
96,2019,119,8,ESCUELA CENTENARIO, ,70938800,1,1,TPCA,11,1101,IQUIQUE,11,IQUIQUE,1,1,0,1,10,110,214,0,0,0,0,0,0,0,0,1,1,1, ,GRATUITO,GRATUITO,-20.21351433,-70.14511871,6kqj5b1,POINT (-70.14511871000001 -20.21351433),1101,Iquique
97,2019,120,1,LICEO COM.Y TEC.ARTURO PRAT CHACON, ,70938800,1,1,TPCA,11,1101,IQUIQUE,11,IQUIQUE,1,1,0,0,0,0,0,0,0,0,0,0,0,0,0,0,2,2, ,GRATUITO,GRATUITO,-20.2095485,-70.14359634,6kqj5bf,POINT (-70.14359634 -20.2095485),1101,Iquique
98,2019,122,8,ESCUELA THILDA PORTILLO OLIVARES, ,70938800,1,1,TPCA,11,1101,IQUIQUE,11,IQUIQUE,1,1,0,1,10,110,0,0,0,0,0,0,0,0,0,1,1,1, ,GRATUITO,GRATUITO,-20.23621368,-70.1410141,6kqhguh,POINT (-70.14101410000001 -20.23621368),1101,Iquique
99,2019,123,6,COLEGIO ESPANA, ,70938800,1,1,TPCA,11,1101,IQUIQUE,11,IQUIQUE,1,1,0,1,10,110,363,0,0,0,0,0,0,0,0,1,1,1, ,GRATUITO,GRATUITO,-20.2397213,-70.12885284,6kqhu5m,POINT (-70.12885283999999 -20.2397213),1101,Iquique
100,2019,124,4,LICEO LUIS CRUZ MARTINEZ, ,70938800,1,1,TPCA,11,1101,IQUIQUE,11,IQUIQUE,1,1,0,1,310,510,610,0,0,0,0,0,0,0,0,1,1,1, ,GRATUITO,GRATUITO,-20.24199486,-70.13743591,6kqhggp,POINT (-70.13743590999999 -20.24199486),1101,Iquique
101,2019,125,2,ESCUELA PROFESOR MANUEL CASTRO RAMOS, ,70938800,1,1,TPCA,11,1101,IQUIQUE,11,IQUIQUE,1,1,0,1,10,110,310,0,0,0,0,0,0,0,0,1,1,2, ,GRATUITO,GRATUITO,-20.24541664,-70.13812256,6kqhgfq,POINT (-70.13812256 -20.24541664),1101,Iquique
102,2019,126,0,COLEGIO REPUBLICA DE ITALIA, ,70938800,1,1,TPCA,11,1101,IQUIQUE,11,IQUIQUE,1,1,0,1,10,110,0,0,0,0,0,0,0,0,0,1,1,1, ,GRATUITO,GRATUITO,-20.24359894,-70.13149261,6kqhu4g,POINT (-70.13149261 -20.24359894),1101,Iquique
103,2019,127,9,LICEO MARIA AUXILIADORA, ,70083600,1,1,TPCA,11,1101,IQUIQUE,11,IQUIQUE,3,2,0,0,110,310,0,0,0,0,0,0,0,0,0,1,1,2, ,GRATUITO,$50.001 A $100.000,-20.22232437,-70.14838409,6kqhgwx,POINT (-70.14838408999999 -20.22232437),1101,Iquique
105,2019,129,5,LICEO SUPERIOR GABRIELA MISTRAL, ,65167802,1,1,TPCA,11,1101,IQUIQUE,11,IQUIQUE,3,2,0,0,10,110,310,0,0,0,0,0,0,0,0,1,1,2, ,$1.000 A $10.000,$10.001 A $25.000,-20.2210865,-70.15143585,6kqhgwv,POINT (-70.15143585 -20.2210865),1101,Iquique
106,2019,130,9,COLEGIO NORTH COLLEGE, ,65155174,1,1,TPCA,11,1101,IQUIQUE,11,IQUIQUE,3,2,0,0,110,310,0,0,0,0,0,0,0,0,0,1,1,1, ,$1.000 A $10.000,$25.001 A $50.000,-20.22346306,-70.14422607,6kqhgy6,POINT (-70.14422607 -20.22346306),1101,Iquique
107,2019,131,7,COLEGIO ESCASCE, ,65153926,1,1,TPCA,11,1101,IQUIQUE,11,IQUIQUE,3,2,0,0,110,310,0,0,0,0,0,0,0,0,0,1,1,1, ,GRATUITO,GRATUITO,-20.22463608,-70.1481781,6kqhgwp,POINT (-70.1481781 -20.22463608),1101,Iquique
108,2019,132,5,COLEGIO BAJO MOLLE, ,65150688,1,1,TPCA,11,1101,IQUIQUE,11,IQUIQUE,3,2,0,0,10,110,310,0,0,0,0,0,0,0,0,1,1,1, ,GRATUITO,$50.001 A $100.000,-20.28962326,-70.12750244,6kqhs4q,POINT (-70.12750244 -20.28962326),1101,Iquique
109,2019,133,3,COLEGIO ADVENTISTA DE IQUIQUE, ,65102261,1,1,TPCA,11,1101,IQUIQUE,11,IQUIQUE,3,2,0,1,10,110,310,0,0,0,0,0,0,0,0,1,1,7,ADVENTISTA,GRATUITO,GRATUITO,-20.22514153,-70.14849854,6kqhgwp,POINT (-70.14849854000001 -20.22514153),1101,Iquique
110,2019,134,1,LICEO ATENEA, ,65135174,1,1,TPCA,11,1101,IQUIQUE,11,IQUIQUE,3,2,0,1,110,310,0,0,0,0,0,0,0,0,0,1,1,1, ,GRATUITO,GRATUITO,-20.2155838,-70.15438843,6kqhgxg,POINT (-70.15438843 -20.2155838),1101,Iquique
111,2019,136,8,J.  I.  CAPULLITO,14133877, ,0,1,TPCA,11,1101,IQUIQUE,11,IQUIQUE,4,3,0,0,0,0,0,0,0,0,0,0,0,0,0,0,1,2, ,GRATUITO,$25.001 A $50.000,-20.215338,-70.13811,6kqhgzy,POINT (-70.13811 -20.215338),1101,Iquique
113,2019,139,2,JARDIN INFANTIL CONEJITO, ,76231708,1,1,TPCA,11,1101,IQUIQUE,11,IQUIQUE,4,3,0,0,10,0,0,0,0,0,0,0,0,0,0,1,1,9, ,SIN INFORMACION,SIN INFORMACION,-20.214958,-70.15338,6kqhgxg,POINT (-70.15338 -20.214958),1101,Iquique
115,2019,144,9,COLEGIO IQUIQUE YOUNG SCHOOL, ,65152578,1,1,TPCA,11,1101,IQUIQUE,11,IQUIQUE,3,2,0,0,110,310,0,0,0,0,0,0,0,0,0,1,1,1, ,GRATUITO,$10.001 A $25.000,-20.22363281,-70.14304352,6kqhgy7,POINT (-70.14304352000001 -20.22363281),1101,Iquique
8681,2019,10889,8,CENTRO TRAT. INTEG. LOS TAMARUGOS, ,65024466,1,1,TPCA,11,1101,IQUIQUE,11,IQUIQUE,3,2,0,0,212,215,217,0,0,0,0,0,0,0,0,1,1,1, ,GRATUITO,GRATUITO,-20.240578,-70.13739,6kqhggr,POINT (-70.13739 -20.240578),1101,Iquique
8686,2019,10898,7,JARDIN INFANTIL ACUARELA, ,76167607,1,1,TPCA,11,1101,IQUIQUE,11,IQUIQUE,4,3,0,0,10,0,0,0,0,0,0,0,0,0,0,1,1,2, ,MAS DE $100.000,MAS DE $100.000,-20.240171,-70.14012,6kqhggm,POINT (-70.14012 -20.240171),1101,Iquique
8687,2019,10900,2,COLEGIO LIRIMA, ,79597140,1,1,TPCA,11,1101,IQUIQUE,11,IQUIQUE,4,3,0,0,10,110,310,0,0,0,0,0,0,0,0,1,1,1, ,MAS DE $100.000,MAS DE $100.000,-20.275966,-70.12649,6kqhshz,POINT (-70.12649 -20.275966),1101,Iquique
8688,2019,10901,0,COLEGIO SAN MARTIN, ,65145633,1,1,TPCA,11,1101,IQUIQUE,11,IQUIQUE,3,2,0,0,110,310,0,0,0,0,0,0,0,0,0,1,1,2, ,GRATUITO,GRATUITO,-20.21051025,-70.14571381,6kqj5bc,POINT (-70.14571381 -20.21051025),1101,Iquique
8700,2019,10916,9,ESCUELA CALETA CHANAVAYITA, ,70938800,1,1,TPCA,11,1101,IQUIQUE,11,IQUIQUE,1,1,1,1,10,110,0,0,0,0,0,0,0,0,0,1,1,2, ,GRATUITO,GRATUITO,-20.70178795,-70.18761444,6kq44z6,POINT (-70.18761444 -20.70178795),1101,Iquique
9359,2019,12504,0,COLEGIO LITTLE COLLEGE, ,65155778,1,1,TPCA,11,1101,IQUIQUE,11,IQUIQUE,3,2,0,0,110,310,410,610,0,0,0,0,0,0,0,1,1,1, ,$1.000 A $10.000,$10.001 A $25.000,-20.21544456,-70.13899231,6kqhgzy,POINT (-70.13899231000001 -20.21544456),1101,Iquique
9363,2019,12509,1,LICEO PDTE. ANIBAL PINTO GARMENDIA., ,65158365,1,1,TPCA,11,1101,IQUIQUE,11,IQUIQUE,3,2,0,0,10,110,310,0,0,0,0,0,0,0,0,1,1,2, ,GRATUITO,$50.001 A $100.000,-20.22408104,-70.1410141,6kqhgyk,POINT (-70.14101410000001 -20.22408104),1101,Iquique
9364,2019,12510,5,JARDIN INFANTIL PAPELUCHO, ,65144498,1,1,TPCA,11,1101,IQUIQUE,11,IQUIQUE,3,2,0,0,10,0,0,0,0,0,0,0,0,0,0,1,1,3, ,GRATUITO,GRATUITO,-20.24596977,-70.13226318,6kqhu47,POINT (-70.13226318 -20.24596977),1101,Iquique
9365,2019,12511,3,JARDIN INFANTIL NOCTILUCAS, ,65115457,1,1,TPCA,11,1101,IQUIQUE,11,IQUIQUE,3,2,0,0,10,0,0,0,0,0,0,0,0,0,0,1,1,1, ,GRATUITO,GRATUITO,-20.25030708,-70.13038635,6kqhu1s,POINT (-70.13038634999999 -20.25030708),1101,Iquique
9368,2019,12515,6,COLEGIO NUSTA KORI, ,65155307,1,1,TPCA,11,1101,IQUIQUE,11,IQUIQUE,3,2,0,1,110,310,0,0,0,0,0,0,0,0,0,1,1,7,LAICO,GRATUITO,GRATUITO,-20.21907425,-70.15232849,6kqhgxh,POINT (-70.15232849 -20.21907425),1101,Iquique
9369,2019,12518,0,COLEGIO DIOCESANO OBISPO LABBE, ,65099420,1,1,TPCA,11,1101,IQUIQUE,11,IQUIQUE,3,2,0,0,10,110,310,410,510,0,0,0,0,0,0,1,1,2, ,GRATUITO,GRATUITO,-20.20908737,-70.1455307,6kqj5c1,POINT (-70.14553069999999 -20.20908737),1101,Iquique
9370,2019,12519,9,JARDIN INFANTIL CAPERUZO, ,65144021,1,1,TPCA,11,1101,IQUIQUE,11,IQUIQUE,3,2,0,0,10,0,0,0,0,0,0,0,0,0,0,1,1,1, ,GRATUITO,GRATUITO,-20.23747826,-70.1313324,6kqhu5g,POINT (-70.13133240000001 -20.23747826),1101,Iquique
9372,2019,12523,7,JARDIN INFANTIL EMMANUELITO, ,65155504,1,1,TPCA,11,1101,IQUIQUE,11,IQUIQUE,3,2,0,0,10,0,0,0,0,0,0,0,0,0,0,1,1,2, ,GRATUITO,GRATUITO,-20.22554016,-70.14425659,6kqhgy4,POINT (-70.14425659 -20.22554016),1101,Iquique
9381,2019,12538,5,ESCUELA CHIPANA, ,70938800,1,1,TPCA,11,1101,IQUIQUE,11,IQUIQUE,1,1,0,1,10,110,214,0,0,0,0,0,0,0,0,1,1,1, ,GRATUITO,GRATUITO,-20.25196838,-70.12558746,6kqhu30,POINT (-70.12558746000001 -20.25196838),1101,Iquique
9384,2019,12542,3,ESCUELA CALETA SAN MARCOS, ,70938800,1,1,TPCA,11,1101,IQUIQUE,11,IQUIQUE,1,1,1,1,10,110,0,0,0,0,0,0,0,0,0,1,1,2, ,GRATUITO,GRATUITO,-21.11351585,-70.11991119,6knpukk,POINT (-70.11991119 -21.11351585),1101,Iquique
9385,2019,12545,8,JARDIN INFANTIL EL LLAMITO, ,65155624,1,1,TPCA,11,1101,IQUIQUE,11,IQUIQUE,3,2,0,0,10,0,0,0,0,0,0,0,0,0,0,1,1,7,LIBRE IDEOLOGIA,GRATUITO,GRATUITO,-20.21387672,-70.14373016,6kqj5b4,POINT (-70.14373016 -20.21387672),1101,Iquique
9393,2019,12553,9,J. I. ANATIRI, ,65133838,1,1,TPCA,11,1101,IQUIQUE,11,IQUIQUE,3,2,0,0,10,0,0,0,0,0,0,0,0,0,0,1,1,1, ,GRATUITO,GRATUITO,-20.2103672,-70.14260101,6kqj5bg,POINT (-70.14260101000001 -20.2103672),1101,Iquique
9396,2019,12556,3,JARDIN INFANTIL PECECITO DORADO, ,77919100,1,1,TPCA,11,1101,IQUIQUE,11,IQUIQUE,4,3,0,0,0,0,0,0,0,0,0,0,0,0,0,0,1,9, ,SIN INFORMACION,SIN INFORMACION,-20.23942,-70.132065,6kqhu5e,POINT (-70.132065 -20.23942),1101,Iquique
9398,2019,12559,8,COLEGIO LITTLE STARS, ,76171203,1,1,TPCA,11,1101,IQUIQUE,11,IQUIQUE,3,2,0,0,0,0,0,0,0,0,0,0,0,0,0,0,2,2, ,GRATUITO,$25.001 A $50.000,-20.23959522,-70.14056797,6kqhggm,POINT (-70.14056797000001 -20.23959522),1101,Iquique
9406,2019,12568,7,JARDIN INFANTIL MANDALA GARDEN, ,52004185,1,1,TPCA,11,1101,IQUIQUE,11,IQUIQUE,4,3,0,0,0,0,0,0,0,0,0,0,0,0,0,0,1,9, ,SIN INFORMACION,SIN INFORMACION,-20.266659,-70.128174,6kqhsnw,POINT (-70.128174 -20.266659),1101,Iquique
9411,2019,12573,3,COLEGIO MARIA REINA, ,65154505,1,1,TPCA,11,1101,IQUIQUE,11,IQUIQUE,3,2,0,0,110,310,0,0,0,0,0,0,0,0,0,1,1,1, ,GRATUITO,$25.001 A $50.000,-20.24906731,-70.13703918,6kqhgcz,POINT (-70.13703918 -20.24906731),1101,Iquique
9416,2019,12579,2,ESCUELA LATINOAMERICANA, ,65115457,1,1,TPCA,11,1101,IQUIQUE,11,IQUIQUE,3,2,0,1,110,0,0,0,0,0,0,0,0,0,0,1,1,1, ,GRATUITO,GRATUITO,-20.26636314,-70.12216187,6kqhsqd,POINT (-70.12216187 -20.26636314),1101,Iquique
9420,2019,12584,9,JARDIN INFANTIL ECOSEMILLITA, ,52000016,1,1,TPCA,11,1101,IQUIQUE,11,IQUIQUE,4,3,0,0,10,0,0,0,0,0,0,0,0,0,0,1,1,1, ,$50.001 A $100.000,$50.001 A $100.000,-20.231031,-70.13548,6kqhuj0,POINT (-70.13548 -20.231031),1101,Iquique
9421,2019,12585,7,J.  I.  MI RINCON, ,78939950,1,1,TPCA,11,1101,IQUIQUE,11,IQUIQUE,4,3,0,0,10,0,0,0,0,0,0,0,0,0,0,1,1,9, ,SIN INFORMACION,SIN INFORMACION,-20.252045,-70.13158,6kqhu15,POINT (-70.13158 -20.252045),1101,Iquique
9425,2019,12590,3,COLEGIO HISPANO ITALIANA, ,65156006,1,1,TPCA,11,1101,IQUIQUE,11,IQUIQUE,3,2,0,0,110,310,0,0,0,0,0,0,0,0,0,1,1,7,LAICO,GRATUITO,$10.001 A $25.000,-20.22128868,-70.13903809,6kqhgyy,POINT (-70.13903809 -20.22128868),1101,Iquique
9426,2019,12591,1,LICEO SAMCA ARUMANTI, ,65158258,1,1,TPCA,11,1101,IQUIQUE,11,IQUIQUE,3,2,0,0,110,310,0,0,0,0,0,0,0,0,0,1,1,1, ,GRATUITO,GRATUITO,-20.27095985,-70.12402344,6kqhsmc,POINT (-70.12402344 -20.27095985),1101,Iquique
9427,2019,12593,8,J.I.SAINT MARGARET ROSE GARDEN, ,65145673,1,1,TPCA,11,1101,IQUIQUE,11,IQUIQUE,3,2,0,1,10,0,0,0,0,0,0,0,0,0,0,1,1,1, ,GRATUITO,GRATUITO,-20.21065521,-70.14593506,6kqj5bc,POINT (-70.14593506 -20.21065521),1101,Iquique
9428,2019,12594,6,COLEGIO ANTAMARA, ,65155282,1,1,TPCA,11,1101,IQUIQUE,11,IQUIQUE,3,2,0,0,10,110,310,0,0,0,0,0,0,0,0,1,1,1, ,$25.001 A $50.000,$10.001 A $25.000,-20.26714325,-70.12406158,6kqhsq3,POINT (-70.12406158 -20.26714325),1101,Iquique
9432,2019,12599,7,JARDIN INFANTIL ANAKENA, ,52004770,1,1,TPCA,11,1101,IQUIQUE,11,IQUIQUE,4,3,0,0,10,0,0,0,0,0,0,0,0,0,0,1,1,2, ,GRATUITO,$25.001 A $50.000,-20.267347,-70.12228,6kqhsq6,POINT (-70.12228 -20.267347),1101,Iquique
9433,2019,12600,4,JARDIN INFANTIL PINTITAS, ,76199991,1,1,TPCA,11,1101,IQUIQUE,11,IQUIQUE,4,3,0,0,0,0,0,0,0,0,0,0,0,0,0,0,1,7,DIFERENTES CREDOS,GRATUITO,$25.001 A $50.000,-20.252874,-70.12618,6kqhu1p,POINT (-70.12618000000001 -20.252874),1101,Iquique
9437,2019,12604,7,ESCUELA BASICA CORONA SCHOOL, ,65155612,1,1,TPCA,11,1101,IQUIQUE,11,IQUIQUE,3,2,0,1,10,110,310,0,0,0,0,0,0,0,0,1,1,1, ,GRATUITO,$25.001 A $50.000,-20.21823311,-70.1451416,6kqhgz3,POINT (-70.1451416 -20.21823311),1101,Iquique
9439,2019,12606,3,JARDIN INFANTIL LOS TATITAS, ,78939930,1,1,TPCA,11,1101,IQUIQUE,11,IQUIQUE,4,3,0,0,10,0,0,0,0,0,0,0,0,0,0,1,1,7,NINGUNA,$50.001 A $100.000,$50.001 A $100.000,-20.251759,-70.13393,6kqhu16,POINT (-70.13393000000001 -20.251759),1101,Iquique
9440,2019,12607,1,JARDIN INFANTIL MIS PRIMEROS PASOS, ,65135184,1,1,TPCA,11,1101,IQUIQUE,11,IQUIQUE,3,2,0,1,10,0,0,0,0,0,0,0,0,0,0,1,1,1, ,GRATUITO,GRATUITO,-20.21879959,-70.13720703,6kqhgzr,POINT (-70.13720703 -20.21879959),1101,Iquique
9444,2019,12613,6,JARDIN INFANTIL TALPIOT, ,76177615,1,1,TPCA,11,1101,IQUIQUE,11,IQUIQUE,4,3,0,0,10,0,0,0,0,0,0,0,0,0,0,1,1,1, ,MAS DE $100.000,MAS DE $100.000,-20.218384,-70.147804,6kqhgxr,POINT (-70.14780399999999 -20.218384),1101,Iquique
9450,2019,12619,5,JARDIN INFANTIL HAPPY DAY, ,76339580,1,1,TPCA,11,1101,IQUIQUE,11,IQUIQUE,4,3,0,0,10,0,0,0,0,0,0,0,0,0,0,1,1,9, ,GRATUITO,GRATUITO,-20.223625,-70.144684,6kqhgy6,POINT (-70.144684 -20.223625),1101,Iquique
9452,2019,12621,7,JARDIN INFANTIL D`STEPHANO, ,65155433,1,1,TPCA,11,1101,IQUIQUE,11,IQUIQUE,3,2,0,0,10,0,0,0,0,0,0,0,0,0,0,1,1,9, ,SIN INFORMACION,SIN INFORMACION,-20.21555328,-70.1388092,6kqhgzy,POINT (-70.1388092 -20.21555328),1101,Iquique
9461,2019,12631,4,COLEGIO INGLES, ,65033059,1,1,TPCA,11,1101,IQUIQUE,11,IQUIQUE,3,2,0,0,10,110,310,410,510,0,0,0,0,0,0,1,1,7,METODISTA,GRATUITO,$50.001 A $100.000,-20.22285271,-70.151474,6kqhgwt,POINT (-70.15147399999999 -20.22285271),1101,Iquique
9465,2019,12635,7,ACADEMIA IQUIQUE, ,76164627,1,1,TPCA,11,1101,IQUIQUE,11,IQUIQUE,4,3,0,0,10,110,0,0,0,0,0,0,0,0,0,1,1,7,NINGUNA,GRATUITO,$50.001 A $100.000,-20.219555,-70.14825,6kqhgxp,POINT (-70.14825 -20.219555),1101,Iquique
9466,2019,12636,5,COLEGIO NIMARA, ,78939950,1,1,TPCA,11,1101,IQUIQUE,11,IQUIQUE,4,3,0,0,110,310,0,0,0,0,0,0,0,0,0,1,1,1, ,MAS DE $100.000,MAS DE $100.000,-20.252095,-70.13151,6kqhu15,POINT (-70.13151000000001 -20.252095),1101,Iquique
9468,2019,12638,1,COLEGIO ACADEMIA TARAPACA, ,65153936,1,1,TPCA,11,1101,IQUIQUE,11,IQUIQUE,3,2,0,0,110,0,0,0,0,0,0,0,0,0,0,1,1,1, ,GRATUITO,MAS DE $100.000,-20.21817589,-70.14862061,6kqhgxr,POINT (-70.14862060999999 -20.21817589),1101,Iquique
9474,2019,12646,2,COSTA COLLEGE, ,78939930,1,1,TPCA,11,1101,IQUIQUE,11,IQUIQUE,4,3,0,0,110,0,0,0,0,0,0,0,0,0,0,1,1,2, ,GRATUITO,$50.001 A $100.000,-20.25181985,-70.13407305,6kqhu13,POINT (-70.13407305 -20.25181985),1101,Iquique
9476,2019,12648,9,JARDIN INFANTIL HAPPY GARDEN, ,76215858,1,1,TPCA,11,1101,IQUIQUE,11,IQUIQUE,4,3,0,0,10,0,0,0,0,0,0,0,0,0,0,1,1,7,HUMANISTA-CRISTIANA,GRATUITO,GRATUITO,-20.21456,-70.15091,6kqj58j,POINT (-70.15091 -20.21456),1101,Iquique
9484,2019,12657,8,EAGLES COLLEGE, ,77355300,1,1,TPCA,11,1101,IQUIQUE,11,IQUIQUE,4,3,0,0,10,110,310,0,0,0,0,0,0,0,0,1,1,1, ,MAS DE $100.000,MAS DE $100.000,-20.255172,-70.13247,6kqhu0e,POINT (-70.13247 -20.255172),1101,Iquique
9487,2019,12660,8,ESC. ESP. DE LENGUAJE MONSERRAT, ,65135076,1,1,TPCA,11,1101,IQUIQUE,11,IQUIQUE,3,2,0,0,214,0,0,0,0,0,0,0,0,0,0,1,1,1, ,GRATUITO,GRATUITO,-20.251207,-70.13537,6kqhu12,POINT (-70.13536999999999 -20.251207),1101,Iquique
9488,2019,12661,6,J. I. PUKARA, ,65155627,1,1,TPCA,11,1101,IQUIQUE,11,IQUIQUE,3,2,0,0,10,0,0,0,0,0,0,0,0,0,0,1,1,1, ,GRATUITO,GRATUITO,-20.23920631,-70.14094543,6kqhggs,POINT (-70.14094543 -20.23920631),1101,Iquique
9494,2019,12667,5,COLEGIO HUMBERSTONE, ,65154663,1,1,TPCA,11,1101,IQUIQUE,11,IQUIQUE,3,2,0,0,10,110,310,0,0,0,0,0,0,0,0,1,1,1, ,$25.001 A $50.000,$25.001 A $50.000,-20.24990273,-70.13018799,6kqhu1s,POINT (-70.13018799 -20.24990273),1101,Iquique
9496,2019,12669,1,COLEGIO HISPANO BRITANICO IQUIQUE, ,77822040,1,1,TPCA,11,1101,IQUIQUE,11,IQUIQUE,4,3,0,0,110,310,0,0,0,0,0,0,0,0,0,1,1,7,LAICA,MAS DE $100.000,MAS DE $100.000,-20.26514233,-70.12569262,6kqhsqb,POINT (-70.12569262 -20.26514233),1101,Iquique
9497,2019,12670,5,ESC.ESP.DE TRANS. DE LA COM. ARUSINA, ,65145464,1,1,TPCA,11,1101,IQUIQUE,11,IQUIQUE,3,2,0,0,214,0,0,0,0,0,0,0,0,0,0,1,1,1, ,GRATUITO,GRATUITO,-20.20881,-70.14578,6kqj5c1,POINT (-70.14578 -20.20881),1101,Iquique
9498,2019,12672,1,COLEGIO SALESIANO DE IQUIQUE, ,80230500,1,1,TPCA,11,1101,IQUIQUE,11,IQUIQUE,3,2,0,1,10,110,310,0,0,0,0,0,0,0,0,1,1,2, ,$1.000 A $10.000,$50.001 A $100.000,-20.22387695,-70.14997101,6kqhgwq,POINT (-70.14997101 -20.22387695),1101,Iquique
9499,2019,12674,8,J. I.  MY FRIEND,17571823, ,0,1,TPCA,11,1101,IQUIQUE,11,IQUIQUE,4,3,0,0,10,0,0,0,0,0,0,0,0,0,0,1,1,7,CRISTIANA,$25.001 A $50.000,$50.001 A $100.000,-20.258272,-70.12566,6kqhu20,POINT (-70.12566 -20.258272),1101,Iquique
9503,2019,12678,0,JARDIN INFANTIL CARITAS CONTENTAS, ,65096165,1,1,TPCA,11,1101,IQUIQUE,11,IQUIQUE,3,2,0,0,10,0,0,0,0,0,0,0,0,0,0,1,1,1, ,GRATUITO,GRATUITO,-20.24654961,-70.13204956,6kqhu45,POINT (-70.13204956 -20.24654961),1101,Iquique
9506,2019,12681,0,ESC.TRAST.DE LA COM.FLOR DE LIRIO, ,65144448,1,1,TPCA,11,1101,IQUIQUE,11,IQUIQUE,3,2,0,0,214,0,0,0,0,0,0,0,0,0,0,1,1,1, ,GRATUITO,GRATUITO,-20.215336,-70.14947,6kqhgxy,POINT (-70.14946999999999 -20.215336),1101,Iquique
9507,2019,12682,9,COLEGIO BULNES, ,65150688,1,1,TPCA,11,1101,IQUIQUE,11,IQUIQUE,3,2,0,0,110,363,0,0,0,0,0,0,0,0,0,1,1,1, ,GRATUITO,$50.001 A $100.000,-20.21932411,-70.14831543,6kqhgxp,POINT (-70.14831543 -20.21932411),1101,Iquique
9508,2019,12683,7,LICEO COLEGIO DEPORTIVO, ,70938800,1,1,TPCA,11,1101,IQUIQUE,11,IQUIQUE,1,1,0,0,0,0,0,0,0,0,0,0,0,0,0,0,3,1, ,GRATUITO,GRATUITO,-20.24362564,-70.13340759,6kqhu4f,POINT (-70.13340759 -20.24362564),1101,Iquique
9512,2019,12688,8,COLEGIO GOLDEN NORTH, ,65145675,1,1,TPCA,11,1101,IQUIQUE,11,IQUIQUE,3,2,0,1,10,110,0,0,0,0,0,0,0,0,0,1,1,1, ,GRATUITO,GRATUITO,-20.22085762,-70.15296173,6kqhgwu,POINT (-70.15296173 -20.22085762),1101,Iquique
9520,2019,12697,7,ESC. ESPECIAL DE TRASTORNOS AUDIMED IQUIQUE, ,65145064,1,1,TPCA,11,1101,IQUIQUE,11,IQUIQUE,3,2,0,0,214,0,0,0,0,0,0,0,0,0,0,1,1,1, ,GRATUITO,GRATUITO,-20.252443,-70.131485,6kqhu15,POINT (-70.131485 -20.252443),1101,Iquique
9521,2019,12698,5,ESC ESP DE LENGUAJE STA CAROLINA DE MATILLA, ,65145736,1,1,TPCA,11,1101,IQUIQUE,11,IQUIQUE,3,2,0,0,214,0,0,0,0,0,0,0,0,0,0,1,1,2, ,GRATUITO,GRATUITO,-20.245611,-70.13309,6kqhu46,POINT (-70.13309 -20.245611),1101,Iquique
9523,2019,12700,0,ESC. ESP. TRANST. COM. SANTA LAURA, ,65145464,1,1,TPCA,11,1101,IQUIQUE,11,IQUIQUE,3,2,0,0,214,0,0,0,0,0,0,0,0,0,0,1,1,1, ,GRATUITO,GRATUITO,-20.2618,-70.12345,6kqhsr3,POINT (-70.12345000000001 -20.2618),1101,Iquique
9525,2019,12702,7,J. I. LITTLE SUN, ,65157755,1,1,TPCA,11,1101,IQUIQUE,11,IQUIQUE,3,2,0,0,10,0,0,0,0,0,0,0,0,0,0,1,1,1, ,MAS DE $100.000,$50.001 A $100.000,-20.25182724,-70.13500977,6kqhu13,POINT (-70.13500977 -20.25182724),1101,Iquique
9531,2019,12709,4,ACADEMIA NERUDIANA, ,65135181,1,1,TPCA,11,1101,IQUIQUE,11,IQUIQUE,3,2,0,1,110,0,0,0,0,0,0,0,0,0,0,1,1,2, ,GRATUITO,GRATUITO,-20.25031471,-70.13639832,6kqhu18,POINT (-70.13639832 -20.25031471),1101,Iquique
9532,2019,12710,8,COLEGIO HUANTAJAYA, ,76161177,1,1,TPCA,11,1101,IQUIQUE,11,IQUIQUE,4,3,0,0,10,110,0,0,0,0,0,0,0,0,0,1,1,2, ,GRATUITO,GRATUITO,-20.22046707,-70.13459546,6kqhunc,POINT (-70.13459546 -20.22046707),1101,Iquique
9539,2019,12717,5,JARDIN INFANTIL AMTIRI, ,65116052,1,1,TPCA,11,1101,IQUIQUE,11,IQUIQUE,3,2,0,1,10,0,0,0,0,0,0,0,0,0,0,1,1,1, ,GRATUITO,$50.001 A $100.000,-20.24164772,-70.1287384,6kqhu5j,POINT (-70.1287384 -20.24164772),1101,Iquique
9540,2019,12718,3,J.  I. MI MUNDO,15889433, ,0,1,TPCA,11,1101,IQUIQUE,11,IQUIQUE,4,3,0,0,0,0,0,0,0,0,0,0,0,0,0,0,1,1, ,$1.000 A $10.000,$25.001 A $50.000,-20.22034,-70.14224,6kqhgyg,POINT (-70.14224 -20.22034),1101,Iquique
9544,2019,12722,1,JARDIN INFANTIL GIRASOLES, ,77890430,1,1,TPCA,11,1101,IQUIQUE,11,IQUIQUE,4,3,0,0,10,0,0,0,0,0,0,0,0,0,0,1,1,9, ,MAS DE $100.000,MAS DE $100.000,-20.25352,-70.13124,6kqhu0g,POINT (-70.13124000000001 -20.25352),1101,Iquique
9545,2019,12724,8,J.  I. AGU, ,76165298,1,1,TPCA,11,1101,IQUIQUE,11,IQUIQUE,4,3,0,0,0,0,0,0,0,0,0,0,0,0,0,0,1,1, ,$25.001 A $50.000,$50.001 A $100.000,-20.258694,-70.1278515,6kqhu0n,POINT (-70.12785150000001 -20.258694),1101,Iquique
9546,2019,12725,6,ESCUELA ESPECIAL PADRE PIO, ,65148834,1,1,TPCA,11,1101,IQUIQUE,11,IQUIQUE,3,2,0,0,214,0,0,0,0,0,0,0,0,0,0,1,1,2, ,GRATUITO,GRATUITO,-20.216574,-70.14279,6kqhgze,POINT (-70.14279000000001 -20.216574),1101,Iquique
9552,2019,12731,0,ESCUELA ESPECIAL DE LENGUAJE LOS ANDES, ,65135192,1,1,TPCA,11,1101,IQUIQUE,11,IQUIQUE,3,2,0,0,214,0,0,0,0,0,0,0,0,0,0,1,1,1, ,GRATUITO,GRATUITO,-20.230797,-70.13545,6kqhuj0,POINT (-70.13545000000001 -20.230797),1101,Iquique
9560,2019,12741,8,COLEGIO LATIONOAMERICANO LAS PARINAS, ,65115457,1,1,TPCA,11,1101,IQUIQUE,11,IQUIQUE,3,2,0,0,110,310,363,0,0,0,0,0,0,0,0,1,1,1, ,GRATUITO,GRATUITO,-20.2667675,-70.12249756,6kqhsqd,POINT (-70.12249756 -20.2667675),1101,Iquique
9569,2019,12751,5,ESCUELA DE LENGUAJE KERIMA LTDA., ,65142858,1,1,TPCA,11,1101,IQUIQUE,11,IQUIQUE,3,2,0,0,214,0,0,0,0,0,0,0,0,0,0,1,1,7,SIN  ORIENTACION RELIGIOSA,GRATUITO,GRATUITO,-20.22181,-70.14476,6kqhgyd,POINT (-70.14476000000001 -20.22181),1101,Iquique
9573,2019,12756,6,JARDIN INFANTIL DAELY, ,76636700,1,1,TPCA,11,1101,IQUIQUE,11,IQUIQUE,4,3,0,0,10,0,0,0,0,0,0,0,0,0,0,1,1,9, ,SIN INFORMACION,SIN INFORMACION,-20.217861,-70.13644,6kqhup2,POINT (-70.13643999999999 -20.217861),1101,Iquique
9574,2019,12757,4,JARDIN INFANTIL SAMCA ARUMANTI DE IQUIQUE, ,65158258,1,1,TPCA,11,1101,IQUIQUE,11,IQUIQUE,3,2,0,0,10,0,0,0,0,0,0,0,0,0,0,1,1,1, ,GRATUITO,GRATUITO,-20.25280952,-70.12528992,6kqhu30,POINT (-70.12528992 -20.25280952),1101,Iquique
9575,2019,12758,2,LICEO C.E.I.A. JOSE ALEJANDRO SORIA VARAS, ,70938800,1,1,TPCA,11,1101,IQUIQUE,11,IQUIQUE,1,1,0,1,165,167,363,563,663,0,0,0,0,0,0,1,1,2, ,GRATUITO,GRATUITO,-20.256474,-70.128456,6kqhu0q,POINT (-70.128456 -20.256474),1101,Iquique
9578,2019,12761,2,ESCUELA BASICA FRANCISCO FORGIONE, ,65148834,1,1,TPCA,11,1101,IQUIQUE,11,IQUIQUE,3,2,0,1,110,0,0,0,0,0,0,0,0,0,0,1,1,2, ,GRATUITO,GRATUITO,-20.2157917,-70.13855743,6kqhgzy,POINT (-70.13855743000001 -20.2157917),1101,Iquique
9579,2019,12762,0,IQRA ARABIAN BRITISH SCHOOL, ,65156082,1,1,TPCA,11,1101,IQUIQUE,11,IQUIQUE,3,2,1,0,10,110,310,0,0,0,0,0,0,0,0,1,1,9, ,GRATUITO,$50.001 A $100.000,-20.28972816,-70.12212372,6kqhs66,POINT (-70.12212372 -20.28972816),1101,Iquique
11485,2019,16833,5,JARDIN INFANTIL Y SALA CUNA EMITA, ,77441410,1,1,TPCA,11,1101,IQUIQUE,11,IQUIQUE,4,3,0,0,0,0,0,0,0,0,0,0,0,0,0,0,1,9, ,SIN INFORMACION,SIN INFORMACION,-20.253753,-70.129359,6kqhu0v,POINT (-70.12935899999999 -20.253753),1101,Iquique
11519,2019,16872,6,JARDIN INFANTIL AMAUTA PRESCHOOL, ,76229556,1,1,TPCA,11,1101,IQUIQUE,11,IQUIQUE,4,3,0,0,10,0,0,0,0,0,0,0,0,0,0,1,1,9, ,SIN INFORMACION,SIN INFORMACION,-20.26528,-70.12848,6kqhsnv,POINT (-70.12848 -20.26528),1101,Iquique
11570,2019,16931,5,JARDIN INFANTIL HISPANO BRITANICO S. A., ,76285642,1,1,TPCA,11,1101,IQUIQUE,11,IQUIQUE,4,3,0,0,10,0,0,0,0,0,0,0,0,0,0,1,1,9, ,MAS DE $100.000,MAS DE $100.000,-20.2647,-70.12566,6kqhsqb,POINT (-70.12566 -20.2647),1101,Iquique
12624,2019,20483,8,JARDIN INFANTIL MUNAYI MONTESSORI, ,76344241,1,1,TPCA,11,1101,IQUIQUE,11,IQUIQUE,4,3,0,0,10,0,0,0,0,0,0,0,0,0,0,1,1,9, ,$50.001 A $100.000,MAS DE $100.000,-20.24159,-70.14014,6kqhggj,POINT (-70.14014 -20.24159),1101,Iquique
12625,2019,20484,6,AULA HOSPITALARIA SAN SEBASTIAN DE IQUIQUE, ,65121209,1,1,TPCA,11,1101,IQUIQUE,11,IQUIQUE,3,2,0,0,10,110,310,0,0,0,0,0,0,0,0,1,1,9, ,SIN INFORMACION,SIN INFORMACION,-20.21495,-70.13879,6kqhgzy,POINT (-70.13879 -20.21495),1101,Iquique
12658,2019,20526,5,JARDÍN INFANTIL Y SALA CUNA KRIPPE, ,76495768,1,1,TPCA,11,1101,IQUIQUE,11,IQUIQUE,4,3,0,0,0,0,0,0,0,0,0,0,0,0,0,0,1,9, ,SIN INFORMACION,SIN INFORMACION,-20.255823,-70.1327115,6kqhu0d,POINT (-70.1327115 -20.255823),1101,Iquique
12675,2019,20632,6,JARDIN INFANTIL Y SALA CUNA ARCO IRIS DEL SABER, ,76534098,1,1,TPCA,11,1101,IQUIQUE,11,IQUIQUE,4,3,0,0,10,0,0,0,0,0,0,0,0,0,0,1,1,9, ,SIN INFORMACION,SIN INFORMACION,-20.24947,-70.13066,6kqhu1s,POINT (-70.13066000000001 -20.24947),1101,Iquique
15702,2019,40007,6,JARDIN INFANTIL MIS PRIMEROS PASOS 2, ,65135184,1,1,TPCA,11,1101,IQUIQUE,11,IQUIQUE,3,2,0,1,10,0,0,0,0,0,0,0,0,0,0,1,1,1, ,GRATUITO,GRATUITO,-20.2235775,-70.14456177,6kqhgy6,POINT (-70.14456177 -20.2235775),1101,Iquique
15734,2019,40043,2,COLEGIO SUEÑO DEL MAÑANA, ,65158258,1,1,TPCA,11,1101,IQUIQUE,11,IQUIQUE,3,2,0,0,110,0,0,0,0,0,0,0,0,0,0,1,1,1, ,GRATUITO,GRATUITO,-20.25247002,-70.12577057,6kqhu1p,POINT (-70.12577057 -20.25247002),1101,Iquique
15767,2019,40079,3,JARDIN INFANTIL MELODIA, ,76167085,1,1,TPCA,11,1101,IQUIQUE,11,IQUIQUE,4,3,0,0,0,0,0,0,0,0,0,0,0,0,0,0,1,2, ,$50.001 A $100.000,MAS DE $100.000,-20.262049,-70.12429,6kqhsr3,POINT (-70.12429 -20.262049),1101,Iquique
15826,2019,40154,4,ESCUELA DE LENGUAJE NUEVO INTI, ,65142623,1,1,TPCA,11,1101,IQUIQUE,11,IQUIQUE,3,2,0,0,214,0,0,0,0,0,0,0,0,0,0,1,1,1, ,GRATUITO,GRATUITO,-20.27109,-70.12339,6kqhsmc,POINT (-70.12339 -20.27109),1101,Iquique
15828,2019,40156,0,JARDIN INFANTIL WILLKA, ,76904990,1,1,TPCA,11,1101,IQUIQUE,11,IQUIQUE,4,3,0,0,0,0,0,0,0,0,0,0,0,0,0,0,1,1, ,$50.001 A $100.000,$50.001 A $100.000,-20.24168,-70.140044,6kqhggj,POINT (-70.140044 -20.24168),1101,Iquique
15829,2019,40157,9,ESC ESP TRAST DE LA COMUN ARUSIÑA LAS TARKAS, ,65145464,1,1,TPCA,11,1101,IQUIQUE,11,IQUIQUE,3,2,0,0,214,0,0,0,0,0,0,0,0,0,0,1,1,1, ,GRATUITO,GRATUITO,-20.289171,-70.12159,6kqhs67,POINT (-70.12159 -20.289171),1101,Iquique
15847,2019,40177,3,COLEGIO IRQIILLARIY, ,65125046,1,1,TPCA,11,1101,IQUIQUE,11,IQUIQUE,3,2,0,1,110,0,0,0,0,0,0,0,0,0,0,1,1,2, ,GRATUITO,GRATUITO,-20.21602249,-70.14230347,6kqhgzg,POINT (-70.14230347 -20.21602249),1101,Iquique
15850,2019,40181,1,JARDIN INFANTIL Y SALA CUNA DEL ANGEL, ,76765850,1,1,TPCA,11,1101,IQUIQUE,11,IQUIQUE,4,3,0,0,0,0,0,0,0,0,0,0,0,0,0,0,1,1, ,GRATUITO,$50.001 A $100.000,-20.234102,-70.1405,6kqhgum,POINT (-70.1405 -20.234102),1101,Iquique
15863,2019,40197,8,ESC ESPECIAL DE LENGUAJE KUNAMASTA, ,65158495,1,1,TPCA,11,1101,IQUIQUE,11,IQUIQUE,3,2,0,0,214,0,0,0,0,0,0,0,0,0,0,1,1,2, ,GRATUITO,GRATUITO,-20.243143,-70.1396,6kqhgfv,POINT (-70.1396 -20.243143),1101,Iquique
15875,2019,40210,9,ESC ESP DE LENGUAJE NIDOS DEL SABER, ,65144508,1,1,TPCA,11,1101,IQUIQUE,11,IQUIQUE,3,2,0,0,214,0,0,0,0,0,0,0,0,0,0,1,1,7,TODAS,GRATUITO,GRATUITO,-20.239087,-70.140047,6kqhggt,POINT (-70.140047 -20.239087),1101,Iquique
15908,2019,40254,0,JARDIN INFANTIL Y SALA CUNA EL SOLDADITO, ,61101045,1,1,TPCA,11,1101,IQUIQUE,11,IQUIQUE,4,3,0,0,10,0,0,0,0,0,0,0,0,0,0,1,1,1, ,MAS DE $100.000,MAS DE $100.000,-20.229493,-70.143751,6kqhgv6,POINT (-70.14375099999999 -20.229493),1101,Iquique
15944,2019,40293,1,ESCUELA ESPECIAL DE LENGUAJE SAN JOAQUIN, ,65135114,1,1,TPCA,11,1101,IQUIQUE,11,IQUIQUE,3,2,0,0,214,0,0,0,0,0,0,0,0,0,0,1,1,7,VARIAS,GRATUITO,GRATUITO,-20.225166,-70.132298,6kqhun5,POINT (-70.13229800000001 -20.225166),1101,Iquique
15945,2019,40295,8,COLEGIO MAHATMA GANDHI, ,65143982,1,1,TPCA,11,1101,IQUIQUE,11,IQUIQUE,3,2,0,0,10,110,310,0,0,0,0,0,0,0,0,1,1,1, ,GRATUITO,GRATUITO,-20.28588295,-70.12511444,6kqhs70,POINT (-70.12511444 -20.28588295),1101,Iquique
15958,2019,40309,1,ESCUELITA ESPECIAL DE LENGUAJE MAMIÑA, ,65145669,1,1,TPCA,11,1101,IQUIQUE,11,IQUIQUE,3,2,0,0,214,0,0,0,0,0,0,0,0,0,0,1,1,1, ,GRATUITO,GRATUITO,-20.274088,-70.12581,6kqhsjp,POINT (-70.12581 -20.274088),1101,Iquique
15968,2019,40320,2,COLEGIO ACADEMIA TARAPACA ORELLA, ,65153936,1,1,TPCA,11,1101,IQUIQUE,11,IQUIQUE,3,2,0,0,110,310,0,0,0,0,0,0,0,0,0,1,1,1, ,$50.001 A $100.000,MAS DE $100.000,-20.22066498,-70.1463089,6kqhgyc,POINT (-70.14630889999999 -20.22066498),1101,Iquique
15982,2019,40336,9,COLEGIO NIMARA, ,78939950,1,1,TPCA,11,1101,IQUIQUE,11,IQUIQUE,4,3,0,0,0,0,0,0,0,0,0,0,0,0,0,0,1,1, ,MAS DE $100.000,MAS DE $100.000,-20.22964,-70.145386,6kqhgv3,POINT (-70.145386 -20.22964),1101,Iquique
16045,2019,40416,0,JARDIN INFANTIL MATIAS, ,65135042,1,1,TPCA,11,1101,IQUIQUE,11,IQUIQUE,3,2,0,0,10,0,0,0,0,0,0,0,0,0,0,1,1,2, ,GRATUITO,GRATUITO,-20.2282238,-70.14380646,6kqhgvd,POINT (-70.14380645999999 -20.2282238),1101,Iquique
16046,2019,40417,9,ESCUELA DE LENGUAJE ANGELUZ, ,65135165,1,1,TPCA,11,1101,IQUIQUE,11,IQUIQUE,3,2,0,0,214,0,0,0,0,0,0,0,0,0,0,1,1,1, ,GRATUITO,GRATUITO,-20.215776,-70.13577,6kqhupb,POINT (-70.13576999999999 -20.215776),1101,Iquique
16049,2019,40420,9,ESCUELA DE LENGUAJE NUBE Y SOL, ,65144091,1,1,TPCA,11,1101,IQUIQUE,11,IQUIQUE,3,2,0,0,214,0,0,0,0,0,0,0,0,0,0,1,1,7,VARIAS,GRATUITO,GRATUITO,-20.213223,-70.13845,6kqj5bq,POINT (-70.13845000000001 -20.213223),1101,Iquique
16057,2019,40429,2,LICEO TECNICO PROFESIONAL DE ADULTOS, ,70938800,1,1,TPCA,11,1101,IQUIQUE,11,IQUIQUE,1,1,0,1,463,563,663,0,0,0,0,0,0,0,0,1,1,2, ,GRATUITO,GRATUITO,-20.225159,-70.14927,6kqhgwn,POINT (-70.14927 -20.225159),1101,Iquique
16078,2019,40458,6,ESCUELA DE LENGUAJE MOMENTOS PRECIOSOS, ,65144435,1,1,TPCA,11,1101,IQUIQUE,11,IQUIQUE,3,2,0,0,214,0,0,0,0,0,0,0,0,0,0,1,1,1, ,GRATUITO,GRATUITO,-20.216915,-70.14013,6kqhgzt,POINT (-70.14013 -20.216915),1101,Iquique
121,2019,154,6,ESCUELA BASICA FRONTERIZA, ,69010200,1,1,TPCA,14,1404,HUARA,11,IQUIQUE,2,1,1,1,110,0,0,0,0,0,0,0,0,0,0,1,1,1, ,GRATUITO,GRATUITO,-19.92428017,-69.51111603,6kqwdhz,POINT (-69.51111603 -19.92428017),1404,Huara
123,2019,158,9,ESCUELA CHIAPA, ,69010200,1,1,TPCA,14,1404,HUARA,11,IQUIQUE,2,1,1,0,110,0,0,0,0,0,0,0,0,0,0,1,1,2, ,GRATUITO,GRATUITO,-19.53726006,-69.20697021,6kwbc5m,POINT (-69.20697020999999 -19.53726006),1404,Huara
124,2019,159,7,ESCUELA JAINA, ,69010200,1,1,TPCA,14,1404,HUARA,11,IQUIQUE,2,1,1,0,110,0,0,0,0,0,0,0,0,0,0,1,1,1, ,GRATUITO,GRATUITO,-19.55465317,-69.24601746,6kwbb20,POINT (-69.24601746 -19.55465317),1404,Huara
125,2019,160,0,ESCUELA PACHICA, ,69010200,1,1,TPCA,14,1404,HUARA,11,IQUIQUE,2,1,1,1,10,110,0,0,0,0,0,0,0,0,0,1,1,7,RELIGIOSIDAD INDÍGENA,GRATUITO,GRATUITO,-19.86589813,-69.43204498,6kqwup9,POINT (-69.43204498 -19.86589813),1404,Huara
126,2019,161,9,LICEO DE HUARA, ,69010200,1,1,TPCA,14,1404,HUARA,11,IQUIQUE,2,1,1,1,10,110,165,310,363,410,0,0,0,0,0,1,1,1, ,GRATUITO,GRATUITO,-19.99687576,-69.77263641,6kqqhr9,POINT (-69.77263641 -19.99687576),1404,Huara
127,2019,162,7,ESCUELA SIBAYA, ,69010200,1,1,TPCA,14,1404,HUARA,11,IQUIQUE,2,1,1,1,110,0,0,0,0,0,0,0,0,0,0,1,1,7,LAICO,GRATUITO,GRATUITO,-19.77983475,-69.16109467,6kqz6pn,POINT (-69.16109467 -19.77983475),1404,Huara
128,2019,165,1,ESCUELA CHUSMIZA, ,69010200,1,1,TPCA,14,1404,HUARA,11,IQUIQUE,2,1,1,0,110,0,0,0,0,0,0,0,0,0,0,1,1,2, ,GRATUITO,GRATUITO,-19.68392563,-69.18839264,6kwb18d,POINT (-69.18839264 -19.68392563),1404,Huara
9392,2019,12552,0,ESCUELA HUAVIÑA, ,69010200,1,1,TPCA,14,1404,HUARA,11,IQUIQUE,2,1,1,0,110,0,0,0,0,0,0,0,0,0,0,1,1,1, ,GRATUITO,GRATUITO,-19.7831459,-69.17414093,6kqz3ys,POINT (-69.17414092999999 -19.7831459),1404,Huara
9400,2019,12562,8,ESCUELA LAONZANA, ,69010200,1,1,TPCA,14,1404,HUARA,11,IQUIQUE,2,1,1,0,110,0,0,0,0,0,0,0,0,0,0,1,1,1, ,GRATUITO,GRATUITO,-19.85688972,-69.3455658,6kqxn10,POINT (-69.3455658 -19.85688972),1404,Huara
9495,2019,12668,3,ESCUELA SOTOCA, ,69010200,1,1,TPCA,14,1404,HUARA,11,IQUIQUE,2,1,1,0,110,0,0,0,0,0,0,0,0,0,0,1,1,1, ,GRATUITO,GRATUITO,-19.59645653,-69.23446655,6kwb889,POINT (-69.23446654999999 -19.59645653),1404,Huara
129,2019,167,8,ESCUELA CAMINA, ,69251100,1,1,TPCA,14,1402,CAMIÑA,11,IQUIQUE,2,1,1,0,10,110,0,0,0,0,0,0,0,0,0,1,1,1, ,GRATUITO,GRATUITO,-19.31180191,-69.42463684,6kwdhhq,POINT (-69.42463684000001 -19.31180191),1402,Camiña
130,2019,168,6,ESCUELA CUISAMA, ,69251100,1,1,TPCA,14,1402,CAMIÑA,11,IQUIQUE,2,1,1,0,110,0,0,0,0,0,0,0,0,0,0,1,1,1, ,GRATUITO,GRATUITO,-19.32359123,-69.45669556,6kwd56p,POINT (-69.45669556 -19.32359123),1402,Camiña
131,2019,169,4,ESCUELA QUISTAGAMA, ,69251100,1,1,TPCA,14,1402,CAMIÑA,11,IQUIQUE,2,1,1,0,110,0,0,0,0,0,0,0,0,0,0,1,1,7,DIFERENTES RELIGIONES,GRATUITO,GRATUITO,-19.34206772,-69.49701691,6kw9fwc,POINT (-69.49701691 -19.34206772),1402,Camiña
132,2019,170,8,ESCUELA NAMA, ,69251100,1,1,TPCA,14,1402,CAMIÑA,11,IQUIQUE,2,1,1,0,110,0,0,0,0,0,0,0,0,0,0,1,1,1, ,GRATUITO,GRATUITO,-19.18918419,-69.41156769,6kwdud8,POINT (-69.41156769 -19.18918419),1402,Camiña
133,2019,171,6,ESCUELA APAMILCA, ,69251100,1,1,TPCA,14,1402,CAMIÑA,11,IQUIQUE,2,1,1,0,110,0,0,0,0,0,0,0,0,0,0,1,1,1, ,GRATUITO,GRATUITO,-19.309515,-69.39277649,6kwdhuv,POINT (-69.39277649 -19.309515),1402,Camiña
134,2019,172,4,ESCUELA CHAPIQUILTA, ,69251100,1,1,TPCA,14,1402,CAMIÑA,11,IQUIQUE,2,1,1,0,110,0,0,0,0,0,0,0,0,0,0,1,1,1, ,GRATUITO,GRATUITO,-19.31772804,-69.41053009,6kwdhe2,POINT (-69.41053008999999 -19.31772804),1402,Camiña
135,2019,173,2,ESCUELA MOQUELLA, ,69251100,1,1,TPCA,14,1402,CAMIÑA,11,IQUIQUE,2,1,1,0,110,0,0,0,0,0,0,0,0,0,0,1,1,1, ,GRATUITO,GRATUITO,-19.35069084,-69.5149765,6kw9fjk,POINT (-69.5149765 -19.35069084),1402,Camiña
136,2019,174,0,ESCUELA FRANCIA, ,69251100,1,1,TPCA,14,1402,CAMIÑA,11,IQUIQUE,2,1,1,0,110,0,0,0,0,0,0,0,0,0,0,1,1,1, ,GRATUITO,GRATUITO,-19.38155556,-69.57147217,6kw98ze,POINT (-69.57147217000001 -19.38155556),1402,Camiña
137,2019,175,9,ESCUELA YALA YALA, ,69251100,1,1,TPCA,14,1402,CAMIÑA,11,IQUIQUE,2,1,1,0,110,0,0,0,0,0,0,0,0,0,0,1,1,1, ,GRATUITO,GRATUITO,-19.31468773,-69.40009308,6kwdhgb,POINT (-69.40009308 -19.31468773),1402,Camiña
9576,2019,12759,0,LICEO CAMIÑA, ,69251100,1,1,TPCA,14,1402,CAMIÑA,11,IQUIQUE,2,1,1,0,310,410,510,0,0,0,0,0,0,0,0,1,1,1, ,GRATUITO,GRATUITO,-19.31143761,-69.42776489,6kwdhhk,POINT (-69.42776489000001 -19.31143761),1402,Camiña
138,2019,177,5,ESCUELA BASICA CARIQUIMA, ,69250400,1,1,TPCA,14,1403,COLCHANE,11,IQUIQUE,2,1,1,0,110,0,0,0,0,0,0,0,0,0,0,1,1,3, ,GRATUITO,GRATUITO,-19.46720886,-68.6447525,6kx1mbn,POINT (-68.6447525 -19.46720886),1403,Colchane
139,2019,178,3,LICEO TECNICO PROFESIONAL COLCHANE, ,69250400,1,1,TPCA,14,1403,COLCHANE,11,IQUIQUE,2,1,1,1,10,110,310,410,510,610,0,0,0,0,0,1,1,1, ,GRATUITO,GRATUITO,-19.27647781,-68.63913727,6kx4q4f,POINT (-68.63913727000001 -19.27647781),1403,Colchane
140,2019,179,1,ESCUELA BASICA MAUQUE, ,69250400,1,1,TPCA,14,1403,COLCHANE,11,IQUIQUE,2,1,1,0,110,0,0,0,0,0,0,0,0,0,0,1,1,3, ,GRATUITO,GRATUITO,-19.32282257,-68.8805542,6kx40d6,POINT (-68.88055420000001 -19.32282257),1403,Colchane
142,2019,185,6,ESCUELA BASICA PISIGA-CHOQUE, ,69250400,1,1,TPCA,14,1403,COLCHANE,11,IQUIQUE,2,1,1,0,110,0,0,0,0,0,0,0,0,0,0,1,1,3, ,GRATUITO,GRATUITO,-19.30284119,-68.61779785,6kx4nw4,POINT (-68.61779785 -19.30284119),1403,Colchane
143,2019,186,4,ESCUELA BASICA ENQUELGA, ,69250400,1,1,TPCA,14,1403,COLCHANE,11,IQUIQUE,2,1,1,0,110,0,0,0,0,0,0,0,0,0,0,1,1,3, ,GRATUITO,GRATUITO,-19.22896767,-68.80448914,6kx4d76,POINT (-68.80448914 -19.22896767),1403,Colchane
144,2019,187,2,ESCUELA VERTIENTE DEL SABER, ,69010400,1,1,TPCA,14,1405,PICA,11,IQUIQUE,2,1,0,1,10,110,0,0,0,0,0,0,0,0,0,1,1,2, ,GRATUITO,GRATUITO,-20.48829079,-69.32487488,6kqeqqp,POINT (-69.32487488 -20.48829079),1405,Pica
145,2019,188,0,ESC. MATILLA DE NUEVA EXTREMADURA, ,69010400,1,1,TPCA,14,1405,PICA,11,IQUIQUE,2,1,1,1,10,110,0,0,0,0,0,0,0,0,0,1,1,1, ,GRATUITO,GRATUITO,-20.51323128,-69.36000824,6kqem9t,POINT (-69.36000824 -20.51323128),1405,Pica
9391,2019,12551,2,LIC.PADRE ALBERTO HURTADO CRUCHAGA, ,69010400,1,1,TPCA,14,1405,PICA,11,IQUIQUE,2,1,0,1,310,363,510,710,0,0,0,0,0,0,0,1,1,1, ,GRATUITO,GRATUITO,-20.48707771,-69.32679749,6kqeqqm,POINT (-69.32679749 -20.48707771),1405,Pica
9454,2019,12623,3,ESCUELA SAN ANDRES DE PICA, ,69010400,1,1,TPCA,14,1405,PICA,11,IQUIQUE,2,1,1,1,10,110,0,0,0,0,0,0,0,0,0,1,1,1, ,GRATUITO,GRATUITO,-20.48907471,-69.3327713,6kqeqq1,POINT (-69.3327713 -20.48907471),1405,Pica
9509,2019,12684,5,ESCUELA BASICA CANCOSA DE CANCOSA, ,69010400,1,1,TPCA,14,1405,PICA,11,IQUIQUE,2,1,1,0,0,0,0,0,0,0,0,0,0,0,0,0,2,1, ,GRATUITO,GRATUITO,-19.85641046,-68.60191175,6krpncm,POINT (-68.60191175 -19.85641046),1405,Pica
9530,2019,12708,6,ESCUELA ESPECIAL JACARANDA, ,69010400,1,1,TPCA,14,1405,PICA,11,IQUIQUE,2,1,1,0,212,0,0,0,0,0,0,0,0,0,0,1,1,1, ,GRATUITO,GRATUITO,-20.490116,-69.32627,6kqeqmy,POINT (-69.32626999999999 -20.490116),1405,Pica
146,2019,191,0,LIC. ALCDE.SERGIO GONZALEZ GUTIERREZ, ,71497400,1,1,TPCA,14,1401,POZO ALMONTE,11,IQUIQUE,1,1,1,1,310,363,410,510,610,0,0,0,0,0,0,1,1,7,LAICO,GRATUITO,GRATUITO,-20.25324059,-69.7848587,6kqku10,POINT (-69.7848587 -20.25324059),1401,Pozo Almonte
147,2019,192,9,ESCUELA BASICA MAMINA, ,71497400,1,1,TPCA,14,1401,POZO ALMONTE,11,IQUIQUE,1,1,1,1,10,110,0,0,0,0,0,0,0,0,0,1,1,2, ,GRATUITO,GRATUITO,-20.07103539,-69.21761322,6kqvbfj,POINT (-69.21761322 -20.07103539),1401,Pozo Almonte
148,2019,193,7,ESCUELA BASICA POZO ALMONTE, ,71497400,1,1,TPCA,14,1401,POZO ALMONTE,11,IQUIQUE,1,1,1,1,10,110,0,0,0,0,0,0,0,0,0,1,1,1, ,GRATUITO,GRATUITO,-20.25136185,-69.78701782,6kqkgcq,POINT (-69.78701782 -20.25136185),1401,Pozo Almonte
149,2019,195,3,ESCUELA BASICA LA TIRANA, ,71497400,1,1,TPCA,14,1401,POZO ALMONTE,11,IQUIQUE,1,1,1,1,10,110,0,0,0,0,0,0,0,0,0,1,1,1, ,GRATUITO,GRATUITO,-20.33764648,-69.65542603,6kqkqcw,POINT (-69.65542603 -20.33764648),1401,Pozo Almonte
150,2019,196,1,ESCUELA BASICA HUATACONDO, ,71497400,1,1,TPCA,14,1401,POZO ALMONTE,11,IQUIQUE,1,1,1,1,110,0,0,0,0,0,0,0,0,0,0,1,1,1, ,GRATUITO,GRATUITO,-20.92778206,-69.05335999,6kqbuwh,POINT (-69.05335999 -20.92778206),1401,Pozo Almonte
151,2019,198,8,ESCUELA BASICA LA HUAYCA, ,71497400,1,1,TPCA,14,1401,POZO ALMONTE,11,IQUIQUE,1,1,1,1,10,110,0,0,0,0,0,0,0,0,0,1,1,1, ,GRATUITO,GRATUITO,-20.4305687,-69.56046295,6kqec0e,POINT (-69.56046295 -20.4305687),1401,Pozo Almonte
8691,2019,10905,3,ESCUELA BASICA FUERTE BAQUEDANO, ,71497400,1,1,TPCA,14,1401,POZO ALMONTE,11,IQUIQUE,1,1,1,1,10,110,0,0,0,0,0,0,0,0,0,1,1,2, ,GRATUITO,GRATUITO,-20.13747597,-69.75186157,6kqmky0,POINT (-69.75186157 -20.13747597),1401,Pozo Almonte
9390,2019,12550,4,OASIS EN EL DESIERTO, ,71497400,1,1,TPCA,14,1401,POZO ALMONTE,11,IQUIQUE,1,1,1,1,10,110,0,0,0,0,0,0,0,0,0,1,1,1, ,GRATUITO,GRATUITO,-20.62728882,-69.57381439,6kqd8uc,POINT (-69.57381439 -20.62728882),1401,Pozo Almonte
9448,2019,12617,9,ESCUELA ESTRELLA DEL SUR, ,71497400,1,1,TPCA,14,1401,POZO ALMONTE,11,IQUIQUE,1,1,0,1,10,110,0,0,0,0,0,0,0,0,0,1,1,1, ,GRATUITO,GRATUITO,-20.26173782,-69.78385925,6kqksp2,POINT (-69.78385925000001 -20.26173782),1401,Pozo Almonte
9491,2019,12664,0,ESCUELA SAN SANTIAGO DE MACAYA, ,71497400,1,1,TPCA,14,1401,POZO ALMONTE,11,IQUIQUE,1,1,1,0,110,0,0,0,0,0,0,0,0,0,0,1,1,1, ,GRATUITO,GRATUITO,-20.13386726,-69.18497467,6kqv3wt,POINT (-69.18497467 -20.13386726),1401,Pozo Almonte
9522,2019,12699,3,ESC. ESP. DE LENGUAJE KHANA ARU, ,65135201,1,1,TPCA,14,1401,POZO ALMONTE,11,IQUIQUE,3,2,1,0,214,0,0,0,0,0,0,0,0,0,0,1,1,1, ,GRATUITO,GRATUITO,-20.26031,-69.785065,6kqksp8,POINT (-69.785065 -20.26031),1401,Pozo Almonte
9557,2019,12736,1,ACADEMIA POZO ALMONTE, ,65092407,1,1,TPCA,14,1401,POZO ALMONTE,11,IQUIQUE,3,2,1,0,110,0,0,0,0,0,0,0,0,0,0,1,1,2, ,GRATUITO,GRATUITO,-20.26104927,-69.78522491,6kqkezx,POINT (-69.78522491 -20.26104927),1401,Pozo Almonte
152,2019,199,6,LICEO DOMINGO LATRILLE LASTAUNOU, ,69020100,1,2,ANTOF,23,2301,TOCOPILLA,21,ANTOFAGASTA - TOCOPILLA,2,1,0,1,165,310,363,0,0,0,0,0,0,0,0,1,1,1, ,GRATUITO,GRATUITO,-22.08858109,-70.1947937,6kn46dv,POINT (-70.19479370000001 -22.08858109),2301,Tocopilla
153,2019,200,3,LICEO POLITECNICO DIEGO PORTALES P., ,69020100,1,2,ANTOF,23,2301,TOCOPILLA,21,ANTOFAGASTA - TOCOPILLA,2,1,0,1,299,310,410,510,610,0,0,0,0,0,0,1,1,1, ,GRATUITO,GRATUITO,-22.085071,-70.195109,6kn46et,POINT (-70.195109 -22.085071),2301,Tocopilla
154,2019,201,1,ESCUELA CARLOS CONDELL DE LA HAZA, ,69020100,1,2,ANTOF,23,2301,TOCOPILLA,21,ANTOFAGASTA - TOCOPILLA,2,1,0,1,10,110,0,0,0,0,0,0,0,0,0,1,1,7,CRISTIANA,GRATUITO,GRATUITO,-22.0938797,-70.20394897,6kn463z,POINT (-70.20394897 -22.0938797),2301,Tocopilla
155,2019,203,8,ESCUELA PABLO NERUDA, ,69020100,1,2,ANTOF,23,2301,TOCOPILLA,21,ANTOFAGASTA - TOCOPILLA,2,1,0,1,10,110,0,0,0,0,0,0,0,0,0,1,1,7,PLURALISTA,GRATUITO,GRATUITO,-22.08917999,-70.1944046,6kn46dv,POINT (-70.1944046 -22.08917999),2301,Tocopilla
156,2019,204,6,ESCUELA L.GRAL.BERNARDO O´HIGGINS R., ,69020100,1,2,ANTOF,23,2301,TOCOPILLA,21,ANTOFAGASTA - TOCOPILLA,2,1,0,1,10,110,0,0,0,0,0,0,0,0,0,1,1,1, ,GRATUITO,GRATUITO,-22.0853157,-70.18921661,6kn46g3,POINT (-70.18921661 -22.0853157),2301,Tocopilla
157,2019,205,4,ESCUELA ARTURO PRAT CHACON, ,69020100,1,2,ANTOF,23,2301,TOCOPILLA,21,ANTOFAGASTA - TOCOPILLA,2,1,0,1,10,110,0,0,0,0,0,0,0,0,0,1,1,2, ,GRATUITO,GRATUITO,-22.08507919,-70.18756104,6kn46gd,POINT (-70.18756104000001 -22.08507919),2301,Tocopilla
158,2019,206,2,ESCUELA ESTADOS UNIDOS DE NORTEAMERICA, ,69020100,1,2,ANTOF,23,2301,TOCOPILLA,21,ANTOFAGASTA - TOCOPILLA,2,1,0,1,10,110,0,0,0,0,0,0,0,0,0,1,1,2, ,GRATUITO,GRATUITO,-22.10881042,-70.21001434,6kn44r4,POINT (-70.21001434 -22.10881042),2301,Tocopilla
159,2019,207,0,ESC. ESPECIAL PEDRO AGUIRRE CERDA, ,69020100,1,2,ANTOF,23,2301,TOCOPILLA,21,ANTOFAGASTA - TOCOPILLA,2,1,0,0,212,0,0,0,0,0,0,0,0,0,0,1,1,7,NO EXISTE,GRATUITO,GRATUITO,-22.08630943,-70.18914795,6kn46g3,POINT (-70.18914795000001 -22.08630943),2301,Tocopilla
160,2019,208,9,COLEGIO SAGRADA FAMILIA, ,65154769,1,2,ANTOF,23,2301,TOCOPILLA,21,ANTOFAGASTA - TOCOPILLA,3,2,0,0,10,110,310,0,0,0,0,0,0,0,0,1,1,2, ,GRATUITO,GRATUITO,-22.09458189,-70.20499644,6kn463y,POINT (-70.20499644 -22.09458189),2301,Tocopilla
9613,2019,12827,9,ESCUELA ARTURO PRAT CHACON ANEXO, ,69020100,1,2,ANTOF,23,2301,TOCOPILLA,21,ANTOFAGASTA - TOCOPILLA,2,1,0,0,165,0,0,0,0,0,0,0,0,0,0,1,1,2, ,GRATUITO,GRATUITO,-22.092768,-70.20033,6kn46d1,POINT (-70.20032999999999 -22.092768),2301,Tocopilla
9675,2019,12942,9,ESCUELA GABRIELA MISTRAL, ,69020100,1,2,ANTOF,23,2301,TOCOPILLA,21,ANTOFAGASTA - TOCOPILLA,2,1,0,1,10,110,0,0,0,0,0,0,0,0,0,1,1,1, ,GRATUITO,GRATUITO,-22.09320653,-70.19698999,6kn46dh,POINT (-70.19698999000001 -22.09320653),2301,Tocopilla
162,2019,210,0,ESCUELA ARTURO PEREZ CANTO, ,69253600,1,2,ANTOF,23,2302,MARÍA ELENA,21,ANTOFAGASTA - TOCOPILLA,2,1,0,1,10,110,0,0,0,0,0,0,0,0,0,1,1,7,SE IMPARTE RELIGIÓN CATÓLICA Y EVANGÉLICA,GRATUITO,GRATUITO,-22.34456825,-69.6678009,6kn2ysm,POINT (-69.6678009 -22.34456825),2302,María Elena
163,2019,211,9,LICEO H.C. T.P. MARIA ELENA, ,69253600,1,2,ANTOF,23,2302,MARÍA ELENA,21,ANTOFAGASTA - TOCOPILLA,2,1,0,1,310,410,510,0,0,0,0,0,0,0,0,1,1,7,SE IMPARTE RELIGIÓN CATÓLICA Y EVANGÉLICA,GRATUITO,GRATUITO,-22.34669495,-69.66712189,6kn2yev,POINT (-69.66712189 -22.34669495),2302,María Elena
164,2019,214,3,ESCUELA IGNACIO CARRERA PINTO, ,69253600,1,2,ANTOF,23,2302,MARÍA ELENA,21,ANTOFAGASTA - TOCOPILLA,2,1,1,1,110,0,0,0,0,0,0,0,0,0,0,1,1,1, ,GRATUITO,GRATUITO,-22.34555244,-69.66127777,6kn2yu4,POINT (-69.66127777 -22.34555244),2302,María Elena
165,2019,217,8,LICEO LUIS CRUZ MARTINEZ, ,70954900,1,2,ANTOF,22,2201,CALAMA,22,EL LOA,1,1,0,1,310,0,0,0,0,0,0,0,0,0,0,1,1,1, ,GRATUITO,GRATUITO,-22.4550972,-68.926651,6knbr81,POINT (-68.92665100000001 -22.4550972),2201,Calama
166,2019,218,6,LICEO FRANCISCO DE AGUIRRE, ,70954900,1,2,ANTOF,22,2201,CALAMA,22,EL LOA,1,1,0,1,310,610,0,0,0,0,0,0,0,0,0,1,1,1, ,GRATUITO,GRATUITO,-22.45825577,-68.9312439,6knbprt,POINT (-68.9312439 -22.45825577),2201,Calama
167,2019,219,4,LICEO POLITECNICO CESAREO AGUIRRE G., ,70954900,1,2,ANTOF,22,2201,CALAMA,22,EL LOA,1,1,0,1,299,510,610,0,0,0,0,0,0,0,0,1,1,1, ,GRATUITO,GRATUITO,-22.45876122,-68.92049408,6knbpxt,POINT (-68.92049408 -22.45876122),2201,Calama
168,2019,220,8,LICEO MINERO AMÉRICA, ,70954900,1,2,ANTOF,22,2201,CALAMA,22,EL LOA,1,1,0,0,510,0,0,0,0,0,0,0,0,0,0,1,1,1, ,GRATUITO,GRATUITO,-22.43793106,-68.92420197,6knbre6,POINT (-68.92420197 -22.43793106),2201,Calama
169,2019,222,4,CENTRO EDUC.INTEGRAL DE ADULTOS C.E.I.A, ,70954900,1,2,ANTOF,22,2201,CALAMA,22,EL LOA,1,1,0,0,165,363,0,0,0,0,0,0,0,0,0,1,1,1, ,GRATUITO,GRATUITO,-22.46032524,-68.92471313,6knbpx4,POINT (-68.92471313 -22.46032524),2201,Calama
170,2019,223,2,ESCUELA CLAUDIO ARRAU, ,70954900,1,2,ANTOF,22,2201,CALAMA,22,EL LOA,1,1,0,1,110,0,0,0,0,0,0,0,0,0,0,1,1,1, ,GRATUITO,GRATUITO,-22.44936371,-68.92623138,6knbr91,POINT (-68.92623138 -22.44936371),2201,Calama
171,2019,224,0,ESCUELA GRECIA, ,70954900,1,2,ANTOF,22,2201,CALAMA,22,EL LOA,1,1,0,1,110,0,0,0,0,0,0,0,0,0,0,1,1,2, ,GRATUITO,GRATUITO,-22.46030045,-68.93369293,6knbprh,POINT (-68.93369293000001 -22.46030045),2201,Calama
172,2019,225,9,ESCUELA REPUBLICA DE BOLIVIA, ,70954900,1,2,ANTOF,22,2201,CALAMA,22,EL LOA,1,1,0,0,110,0,0,0,0,0,0,0,0,0,0,1,1,2, ,GRATUITO,GRATUITO,-22.4627037,-68.92858887,6knbpqz,POINT (-68.92858887 -22.4627037),2201,Calama
173,2019,226,7,ESCUELA BASICA EMILIO SOTOMAYOR, ,70954900,1,2,ANTOF,22,2201,CALAMA,22,EL LOA,1,1,0,1,110,0,0,0,0,0,0,0,0,0,0,1,1,1, ,GRATUITO,GRATUITO,-22.43814659,-68.9226532,6knbrek,POINT (-68.9226532 -22.43814659),2201,Calama
174,2019,227,5,ESCUELA BASICA PRESIDENTE BALMACEDA, ,70954900,1,2,ANTOF,22,2201,CALAMA,22,EL LOA,1,1,0,1,110,0,0,0,0,0,0,0,0,0,0,1,1,7,LAICO,GRATUITO,GRATUITO,-22.45891953,-68.92311096,6knbpx7,POINT (-68.92311096 -22.45891953),2201,Calama
175,2019,228,3,ESCUELA BASICA VADO DE TOPATER, ,70954900,1,2,ANTOF,22,2201,CALAMA,22,EL LOA,1,1,0,1,110,0,0,0,0,0,0,0,0,0,0,1,1,7,OPCIÓN CATÓLICA  O EVANGÉLICA,GRATUITO,GRATUITO,-22.47698402,-68.92906189,6knbpkp,POINT (-68.92906189 -22.47698402),2201,Calama
176,2019,229,1,ESCUELA REPUBLICA DE CHILE, ,70954900,1,2,ANTOF,22,2201,CALAMA,22,EL LOA,1,1,0,1,110,0,0,0,0,0,0,0,0,0,0,1,1,1, ,GRATUITO,GRATUITO,-22.44360352,-68.90756989,6knbrfr,POINT (-68.90756989 -22.44360352),2201,Calama
177,2019,230,5,ESCUELA BASICA ANDRES BELLO, ,70954900,1,2,ANTOF,22,2201,CALAMA,22,EL LOA,1,1,0,1,110,0,0,0,0,0,0,0,0,0,0,1,1,1, ,GRATUITO,GRATUITO,-22.45573235,-68.91639709,6knbrb0,POINT (-68.91639709 -22.45573235),2201,Calama
178,2019,231,3,ESCUELA BASICA JOHN FITZGERALD KENNEDY, ,70954900,1,2,ANTOF,22,2201,CALAMA,22,EL LOA,1,1,0,1,110,0,0,0,0,0,0,0,0,0,0,1,1,1, ,GRATUITO,GRATUITO,-22.45438194,-68.92017365,6knbr8m,POINT (-68.92017365 -22.45438194),2201,Calama
179,2019,232,1,ESCUELA BASICA PEDRO VERGARA KELLER, ,70954900,1,2,ANTOF,22,2201,CALAMA,22,EL LOA,1,1,0,1,110,0,0,0,0,0,0,0,0,0,0,1,1,2, ,GRATUITO,GRATUITO,-22.44170189,-68.93256378,6knbr6s,POINT (-68.93256378 -22.44170189),2201,Calama
180,2019,234,8,ESCUELA REPUBLICA DE ECUADOR, ,70954900,1,2,ANTOF,22,2201,CALAMA,22,EL LOA,1,1,0,0,0,0,0,0,0,0,0,0,0,0,0,0,3,2, ,GRATUITO,SIN INFORMACION,-22.45403528,-68.93942446,6knbr0r,POINT (-68.93942446 -22.45403528),2201,Calama
182,2019,236,4,ESCUELA DE PARVULOS LAS ABEJITAS, ,70954900,1,2,ANTOF,22,2201,CALAMA,22,EL LOA,1,1,0,0,10,0,0,0,0,0,0,0,0,0,0,1,1,2, ,GRATUITO,GRATUITO,-22.47755623,-68.92974854,6knbpkn,POINT (-68.92974854000001 -22.47755623),2201,Calama
183,2019,237,2,ESCUELA DE PARVULOS LLAMITO BLANCO, ,70954900,1,2,ANTOF,22,2201,CALAMA,22,EL LOA,1,1,0,0,10,0,0,0,0,0,0,0,0,0,0,1,1,1, ,GRATUITO,GRATUITO,-22.43809319,-68.92285919,6knbre7,POINT (-68.92285919 -22.43809319),2201,Calama
184,2019,238,0,ESCUELA DIFERENCIAL LOA, ,70954900,1,2,ANTOF,22,2201,CALAMA,22,EL LOA,1,1,0,0,212,215,0,0,0,0,0,0,0,0,0,1,1,1, ,GRATUITO,GRATUITO,-22.45413589,-68.91889954,6knbr8q,POINT (-68.91889954 -22.45413589),2201,Calama
185,2019,239,9,ESCUELA BASICA 21 DE MAYO, ,70954900,1,2,ANTOF,22,2201,CALAMA,22,EL LOA,1,1,0,1,110,0,0,0,0,0,0,0,0,0,0,1,1,1, ,GRATUITO,GRATUITO,-22.45078278,-68.93200684,6knbr2v,POINT (-68.93200684 -22.45078278),2201,Calama
186,2019,240,2,ESCUELA BASICA REPUBLICA DE FRANCIA, ,70954900,1,2,ANTOF,22,2201,CALAMA,22,EL LOA,1,1,0,1,110,0,0,0,0,0,0,0,0,0,0,1,1,7,LAICA,GRATUITO,GRATUITO,-22.47482872,-68.93264771,6knbpks,POINT (-68.93264771 -22.47482872),2201,Calama
187,2019,241,0,ESCUELA PARVULARIA LAS ARDILLAS, ,70954900,1,2,ANTOF,22,2201,CALAMA,22,EL LOA,1,1,0,1,10,0,0,0,0,0,0,0,0,0,0,1,1,1, ,GRATUITO,GRATUITO,-22.44329071,-68.92927551,6knbr6r,POINT (-68.92927551 -22.44329071),2201,Calama
188,2019,243,7,ESCUELA BASICA PUKARA, ,70954900,1,2,ANTOF,22,2201,CALAMA,22,EL LOA,1,1,1,0,110,0,0,0,0,0,0,0,0,0,0,1,1,2, ,GRATUITO,GRATUITO,-22.26803017,-68.63121796,6kp1q60,POINT (-68.63121796 -22.26803017),2201,Calama
189,2019,244,5,ESCUELA DE PARVULOS LOS ENANITOS, ,70954900,1,2,ANTOF,22,2201,CALAMA,22,EL LOA,1,1,0,1,10,0,0,0,0,0,0,0,0,0,0,1,1,7,NINGUNA,GRATUITO,GRATUITO,-22.45796585,-68.93946838,6knbppx,POINT (-68.93946837999999 -22.45796585),2201,Calama
190,2019,245,3,ESCUELA DE PARVULOS PAPELUCHO, ,70954900,1,2,ANTOF,22,2201,CALAMA,22,EL LOA,1,1,0,0,10,0,0,0,0,0,0,0,0,0,0,1,1,1, ,GRATUITO,GRATUITO,-22.44638252,-68.91606903,6knbrcb,POINT (-68.91606903 -22.44638252),2201,Calama
191,2019,246,1,ESCUELA BASICA SENORA DE LA CANDELARIA, ,70954900,1,2,ANTOF,22,2201,CALAMA,22,EL LOA,1,1,1,0,10,110,0,0,0,0,0,0,0,0,0,1,1,2, ,GRATUITO,GRATUITO,-22.48739243,-68.9263382,6knbpd3,POINT (-68.9263382 -22.48739243),2201,Calama
192,2019,248,8,ESCUELA BASICA SAN JOSE, ,70954900,1,2,ANTOF,22,2201,CALAMA,22,EL LOA,1,1,1,0,110,0,0,0,0,0,0,0,0,0,0,1,1,2, ,GRATUITO,GRATUITO,-22.27883339,-68.32240295,6kp3m23,POINT (-68.32240295 -22.27883339),2201,Calama
193,2019,249,6,ESCUELA BASICA SAN ANDRES, ,70954900,1,2,ANTOF,22,2201,CALAMA,22,EL LOA,1,1,1,0,0,0,0,0,0,0,0,0,0,0,0,0,2,2, ,GRATUITO,GRATUITO,-22.11495425,-68.31687474,6kp6jqj,POINT (-68.31687474 -22.11495425),2201,Calama
195,2019,252,6,ESCUELA BASICA SAN FRANCISCO, ,70954900,1,2,ANTOF,22,2201,CALAMA,22,EL LOA,1,1,1,1,110,0,0,0,0,0,0,0,0,0,0,1,1,2, ,GRATUITO,GRATUITO,-22.34274864,-68.65013885,6kp0vud,POINT (-68.65013885 -22.34274864),2201,Calama
196,2019,253,4,COLEGIO ADVENTISTA DE CALAMA, ,65102261,1,2,ANTOF,22,2201,CALAMA,22,EL LOA,3,2,0,1,10,110,310,0,0,0,0,0,0,0,0,1,1,7,ADVENTISTA,$1.000 A $10.000,$50.001 A $100.000,-22.4657191,-68.92668752,6knbpw1,POINT (-68.92668752 -22.4657191),2201,Calama
197,2019,254,2,FUNDACION EDUC.COLEGIO NUESTRA SRA.DE AYQUINA, ,65093790,1,2,ANTOF,22,2201,CALAMA,22,EL LOA,3,2,0,0,110,310,0,0,0,0,0,0,0,0,0,1,1,2, ,GRATUITO,$25.001 A $50.000,-22.46183422,-68.9277117,6knbpwb,POINT (-68.9277117 -22.46183422),2201,Calama
198,2019,255,0,COLEGIO EJERCITO DE SALVACION, ,65064565,1,2,ANTOF,22,2201,CALAMA,22,EL LOA,3,2,0,1,10,110,310,0,0,0,0,0,0,0,0,1,1,3, ,GRATUITO,GRATUITO,-22.45990004,-68.93066766,6knbprq,POINT (-68.93066766 -22.45990004),2201,Calama
199,2019,256,9,INSTITUTO OBISPO SILVA LEZAETA, ,65127678,1,2,ANTOF,22,2201,CALAMA,22,EL LOA,3,2,0,0,110,310,0,0,0,0,0,0,0,0,0,1,1,2, ,$10.001 A $25.000,$50.001 A $100.000,-22.46956796,-68.92652932,6knbpt9,POINT (-68.92652932 -22.46956796),2201,Calama
200,2019,257,7,COLEGIO CHUQUICAMATA, ,72747300,1,2,ANTOF,22,2201,CALAMA,22,EL LOA,4,3,0,0,110,310,0,0,0,0,0,0,0,0,0,1,1,1, ,$1.000 A $10.000,$50.001 A $100.000,-22.478863,-68.91212,6knbpgg,POINT (-68.91212 -22.478863),2201,Calama
201,2019,259,3,ESC. PARV. JESUS DE NAZARETH, , ,9,2,ANTOF,22,2201,CALAMA,22,EL LOA,4,3,0,0,10,0,0,0,0,0,0,0,0,0,0,1,1,2, ,$50.001 A $100.000,$50.001 A $100.000,-22.464136,-68.92174,6knbpws,POINT (-68.92174 -22.464136),2201,Calama
202,2019,261,5,ESCUELA DE PARRVULOS CAPITAN RAFAEL TORREBLANCA,17459682, ,0,2,ANTOF,22,2201,CALAMA,22,EL LOA,4,3,0,0,10,0,0,0,0,0,0,0,0,0,0,1,1,9, ,SIN INFORMACION,SIN INFORMACION,-22.451738,-68.91319,6knbrbf,POINT (-68.91319 -22.451738),2201,Calama
203,2019,262,3,ESCUELA DE PARVULOS MICKEY MOUSE, ,65148139,1,2,ANTOF,22,2201,CALAMA,22,EL LOA,3,2,0,0,10,0,0,0,0,0,0,0,0,0,0,1,1,1, ,GRATUITO,GRATUITO,-22.450636,-68.93184,6knbr2v,POINT (-68.93183999999999 -22.450636),2201,Calama
204,2019,265,8,ESCUELA DE PARVULOS LOS CONEJITOS, ,70954900,1,2,ANTOF,22,2201,CALAMA,22,EL LOA,1,1,0,0,10,0,0,0,0,0,0,0,0,0,0,1,1,1, ,GRATUITO,GRATUITO,-22.45832062,-68.92401123,6knbpxe,POINT (-68.92401123 -22.45832062),2201,Calama
8703,2019,10956,8,ESCUELA DIFERENCIAL SANTA CECILIA, ,65152409,1,2,ANTOF,22,2201,CALAMA,22,EL LOA,3,2,0,0,212,214,0,0,0,0,0,0,0,0,0,1,1,2, ,GRATUITO,GRATUITO,-22.439745,-68.92215,6knbrdu,POINT (-68.92215 -22.439745),2201,Calama
8706,2019,10962,2,COLEGIO JUAN PABLO II, ,65127871,1,2,ANTOF,22,2201,CALAMA,22,EL LOA,3,2,0,0,110,310,0,0,0,0,0,0,0,0,0,1,1,2, ,GRATUITO,$50.001 A $100.000,-22.44695133,-68.9235225,6knbr9e,POINT (-68.9235225 -22.44695133),2201,Calama
8707,2019,10963,0,COLEGIO EVANGELICO EJERCITO DE SALVACION CATHERINE BOOTH, ,65064565,1,2,ANTOF,22,2201,CALAMA,22,EL LOA,3,2,0,1,110,299,0,0,0,0,0,0,0,0,0,1,1,3, ,GRATUITO,GRATUITO,-22.4666211,-68.93676089,6knbpq1,POINT (-68.93676089 -22.4666211),2201,Calama
8709,2019,10967,3,LICEO ELEUTERIO RAMIREZ MOLINA, ,70954900,1,2,ANTOF,22,2201,CALAMA,22,EL LOA,1,1,0,1,310,410,510,0,0,0,0,0,0,0,0,1,1,1, ,GRATUITO,$1.000 A $10.000,-22.4584199,-68.92457317,6knbpxd,POINT (-68.92457317 -22.4584199),2201,Calama
8711,2019,10970,3,LICEO JORGE ALESSANDRI RODRIGUEZ, ,70954900,1,2,ANTOF,22,2201,CALAMA,22,EL LOA,1,1,0,1,110,410,510,0,0,0,0,0,0,0,0,1,1,1, ,GRATUITO,GRATUITO,-22.4462778,-68.92811078,6knbr9b,POINT (-68.92811078 -22.4462778),2201,Calama
8712,2019,10971,1,ANEXO LICEO NOCTURNO, ,70954900,1,2,ANTOF,22,2201,CALAMA,22,EL LOA,1,1,0,0,165,363,0,0,0,0,0,0,0,0,0,1,1,1, ,GRATUITO,GRATUITO,-22.459785,-68.92844,6knbprr,POINT (-68.92843999999999 -22.459785),2201,Calama
8715,2019,10975,4,ESCUELA DE PARVULOS SAINT PATRICK S SCH., ,65147114,1,2,ANTOF,22,2201,CALAMA,22,EL LOA,3,2,0,0,10,0,0,0,0,0,0,0,0,0,0,1,1,7,NO HAY,GRATUITO,GRATUITO,-22.454521,-68.93594,6knbr26,POINT (-68.93594 -22.454521),2201,Calama
9597,2019,12805,8,ESCUELA DE PARVULOS CARINOSITOS 1, ,65155426,1,2,ANTOF,22,2201,CALAMA,22,EL LOA,3,2,0,0,10,0,0,0,0,0,0,0,0,0,0,1,1,9, ,$10.001 A $25.000,GRATUITO,-22.449663,-68.91845,6knbr9p,POINT (-68.91845000000001 -22.449663),2201,Calama
9601,2019,12810,4,ESCUELA KAMAC MAYU, ,70954900,1,2,ANTOF,22,2201,CALAMA,22,EL LOA,1,1,0,1,110,0,0,0,0,0,0,0,0,0,0,1,1,1, ,GRATUITO,GRATUITO,-22.4379926,-68.90944038,6knbrgm,POINT (-68.90944038000001 -22.4379926),2201,Calama
9602,2019,12811,2,ESCUELA DE PARVULOS QUILLA ANTAY, ,70954900,1,2,ANTOF,22,2201,CALAMA,22,EL LOA,1,1,0,0,10,0,0,0,0,0,0,0,0,0,0,1,1,1, ,GRATUITO,GRATUITO,-22.437914,-68.90948,6knbrgm,POINT (-68.90948 -22.437914),2201,Calama
9604,2019,12814,7,ESCUELA DE PARVULOS RENATITO, ,65155699,1,2,ANTOF,22,2201,CALAMA,22,EL LOA,3,2,0,0,10,0,0,0,0,0,0,0,0,0,0,1,1,9, ,GRATUITO,GRATUITO,-22.460001,-68.92374,6knbpx7,POINT (-68.92374 -22.460001),2201,Calama
9610,2019,12823,6,COLEGIO CALAMA, ,65153105,1,2,ANTOF,22,2201,CALAMA,22,EL LOA,3,2,0,0,10,110,310,0,0,0,0,0,0,0,0,1,1,1, ,GRATUITO,GRATUITO,-22.44391734,-68.92904662,6knbr6p,POINT (-68.92904661999999 -22.44391734),2201,Calama
9614,2019,12829,5,COL  LEONARDO DA VINCI, , ,9,2,ANTOF,22,2201,CALAMA,22,EL LOA,4,3,0,0,10,110,310,0,0,0,0,0,0,0,0,1,1,1, ,MAS DE $100.000,MAS DE $100.000,-22.483597,-68.9313,6knbp6v,POINT (-68.93129999999999 -22.483597),2201,Calama
9616,2019,12831,7,ESCUELA DE PARVULOS TIERNO AMANECER, ,65147116,1,2,ANTOF,22,2201,CALAMA,22,EL LOA,3,2,0,0,10,0,0,0,0,0,0,0,0,0,0,1,1,2, ,GRATUITO,GRATUITO,-22.44251,-68.905685,6kp0242,POINT (-68.90568500000001 -22.44251),2201,Calama
9617,2019,12832,5,COL  SAN IGNACIO, ,77281120,1,2,ANTOF,22,2201,CALAMA,22,EL LOA,4,3,0,0,10,110,310,0,0,0,0,0,0,0,0,1,1,2, ,MAS DE $100.000,MAS DE $100.000,-22.440527,-68.92397,6knbrdg,POINT (-68.92397 -22.440527),2201,Calama
9620,2019,12836,8,COLEGIO RIO LOA, ,65096016,1,2,ANTOF,22,2201,CALAMA,22,EL LOA,3,2,0,0,10,110,510,610,0,0,0,0,0,0,0,1,1,1, ,GRATUITO,GRATUITO,-22.45374056,-68.94800235,6knbr03,POINT (-68.94800235 -22.45374056),2201,Calama
9622,2019,12838,4,COLEGIO ECOLOGICO MONTESSORI, ,65158309,1,2,ANTOF,22,2201,CALAMA,22,EL LOA,3,2,0,1,10,110,310,0,0,0,0,0,0,0,0,1,1,3, ,$1.000 A $10.000,$50.001 A $100.000,-22.4723183,-68.93727288,6knbpm1,POINT (-68.93727287999999 -22.4723183),2201,Calama
9628,2019,12847,3,ESC  PARV  LOS 7 ENANITOS DEL BOSQUE, , ,9,2,ANTOF,22,2201,CALAMA,22,EL LOA,4,3,0,0,10,0,0,0,0,0,0,0,0,0,0,1,1,3, ,$25.001 A $50.000,$25.001 A $50.000,-22.453285,-68.91933,6knbr8w,POINT (-68.91933 -22.453285),2201,Calama
9631,2019,12851,1,COLEGIO PADRE ALBERTO HURTADO, ,69528860,1,2,ANTOF,22,2201,CALAMA,22,EL LOA,3,2,0,1,110,310,0,0,0,0,0,0,0,0,0,1,1,2, ,GRATUITO,$25.001 A $50.000,-22.46827348,-68.93291763,6knbpmu,POINT (-68.93291763000001 -22.46827348),2201,Calama
9632,2019,12853,8,COLEGIO PARTICULAR SAN NICOLAS, ,65153182,1,2,ANTOF,22,2201,CALAMA,22,EL LOA,3,2,0,0,110,310,0,0,0,0,0,0,0,0,0,1,1,2, ,GRATUITO,$50.001 A $100.000,-22.4378052,-68.91226644,6knbrg7,POINT (-68.91226644 -22.4378052),2201,Calama
9638,2019,12861,9,ESCUELA DE PARVULOS KING LIONS SCHOOL, ,65147031,1,2,ANTOF,22,2201,CALAMA,22,EL LOA,3,2,0,0,10,0,0,0,0,0,0,0,0,0,0,1,1,1, ,GRATUITO,GRATUITO,-22.46265,-68.93063,6knbpqy,POINT (-68.93062999999999 -22.46265),2201,Calama
9639,2019,12862,7,ESCUELA LAPICITO DE COLOR, ,76166096,1,2,ANTOF,22,2201,CALAMA,22,EL LOA,4,3,0,0,10,0,0,0,0,0,0,0,0,0,0,1,1,9, ,$1.000 A $10.000,$10.001 A $25.000,-22.471968,-68.936646,6knbpm1,POINT (-68.936646 -22.471968),2201,Calama
9642,2019,12865,1,ESC.DE PARVULOS LA CASITA DE CHOCOLATE, ,65154305,1,2,ANTOF,22,2201,CALAMA,22,EL LOA,3,2,0,0,10,0,0,0,0,0,0,0,0,0,0,1,1,2, ,GRATUITO,GRATUITO,-22.468325,-68.933495,6knbpmu,POINT (-68.93349499999999 -22.468325),2201,Calama
9643,2019,12867,8,COL  LICANCABUR, , ,9,2,ANTOF,22,2201,CALAMA,22,EL LOA,4,3,0,0,10,110,310,0,0,0,0,0,0,0,0,1,1,1, ,MAS DE $100.000,MAS DE $100.000,-22.439384,-68.92137,6knbreh,POINT (-68.92137 -22.439384),2201,Calama
9645,2019,12869,4,ESCUELA DE PARVULOS GATO CON BOTAS, ,65147116,1,2,ANTOF,22,2201,CALAMA,22,EL LOA,3,2,0,0,10,0,0,0,0,0,0,0,0,0,0,1,1,7,NINGUNA,GRATUITO,GRATUITO,-22.448307,-68.93588,6knbr36,POINT (-68.93588 -22.448307),2201,Calama
9647,2019,12871,6,ESCUELA BASICA VALENTIN LETELIER, ,70954900,1,2,ANTOF,22,2201,CALAMA,22,EL LOA,1,1,0,1,110,0,0,0,0,0,0,0,0,0,0,1,1,1, ,GRATUITO,GRATUITO,-22.4626365,-68.9459991,6knbpng,POINT (-68.94599909999999 -22.4626365),2201,Calama
9649,2019,12875,9,ESC  PARV  CARINOSITOS 2,14127379, ,0,2,ANTOF,22,2201,CALAMA,22,EL LOA,4,3,0,0,0,0,0,0,0,0,0,0,0,0,0,0,1,9, ,SIN INFORMACION,SIN INFORMACION,-22.449651,-68.91866,6knbr9n,POINT (-68.91866 -22.449651),2201,Calama
9650,2019,12876,7,LOESS SCHOOL, ,76166102,1,2,ANTOF,22,2201,CALAMA,22,EL LOA,4,3,0,0,10,110,310,0,0,0,0,0,0,0,0,1,1,1, ,MAS DE $100.000,MAS DE $100.000,-22.453469,-68.91549,6knbrb3,POINT (-68.91549000000001 -22.453469),2201,Calama
9656,2019,12882,1,ESCUELA DE PARVULOS INTI PANNI, ,70954900,1,2,ANTOF,22,2201,CALAMA,22,EL LOA,1,1,0,1,10,0,0,0,0,0,0,0,0,0,0,1,1,1, ,GRATUITO,GRATUITO,-22.467109,-68.936257,6knbpmf,POINT (-68.936257 -22.467109),2201,Calama
9661,2019,12888,0,ESC.ESPEC.DE LENGUAJE CAMINO DE AMOR, ,65155695,1,2,ANTOF,22,2201,CALAMA,22,EL LOA,3,2,0,0,214,0,0,0,0,0,0,0,0,0,0,1,1,7,FORMACIÓN VALÓRICA CRISTIANA,GRATUITO,GRATUITO,-22.452381,-68.938248,6knbr28,POINT (-68.938248 -22.452381),2201,Calama
9672,2019,12939,9,SAN NICOLITO, , ,9,2,ANTOF,22,2201,CALAMA,22,EL LOA,4,3,0,0,10,0,0,0,0,0,0,0,0,0,0,1,1,9, ,SIN INFORMACION,SIN INFORMACION,-22.439626,-68.90642,6knbrfz,POINT (-68.90642 -22.439626),2201,Calama
9679,2019,12946,1,ESC. PARV. GREEN GARDEN,1553188, ,0,2,ANTOF,22,2201,CALAMA,22,EL LOA,4,3,0,0,0,0,0,0,0,0,0,0,0,0,0,0,1,9, ,SIN INFORMACION,SIN INFORMACION,-22.435131,-68.916796,6knbrgb,POINT (-68.91679600000001 -22.435131),2201,Calama
9681,2019,12949,6,ESC. PARV. SNOOPY 2, , ,9,2,ANTOF,22,2201,CALAMA,22,EL LOA,4,3,0,0,10,0,0,0,0,0,0,0,0,0,0,1,1,9, ,$50.001 A $100.000,$50.001 A $100.000,-22.477875,-68.9347,6knbpk5,POINT (-68.93470000000001 -22.477875),2201,Calama
9683,2019,12952,6,J Y N SCHOOL, ,65153976,1,2,ANTOF,22,2201,CALAMA,22,EL LOA,3,2,0,0,10,0,0,0,0,0,0,0,0,0,0,1,1,1, ,GRATUITO,GRATUITO,-22.461736,-68.944406,6knbpnu,POINT (-68.944406 -22.461736),2201,Calama
9687,2019,12956,9,ESC. PARV. ANSCO, , ,9,2,ANTOF,22,2201,CALAMA,22,EL LOA,4,3,0,0,10,0,0,0,0,0,0,0,0,0,0,1,1,9, ,SIN INFORMACION,SIN INFORMACION,-22.446456,-68.90741,6knbrcx,POINT (-68.90741 -22.446456),2201,Calama
9692,2019,12961,5,LICEO RADOMIRO TOMIC ROMERO, ,70954900,1,2,ANTOF,22,2201,CALAMA,22,EL LOA,1,1,0,0,310,0,0,0,0,0,0,0,0,0,0,1,1,1, ,GRATUITO,GRATUITO,-22.44894644,-68.92732395,6knbr92,POINT (-68.92732395 -22.44894644),2201,Calama
9708,2019,12979,8,ESCUELA DE PARVULOS PLANETA TIERRA, ,65147507,1,2,ANTOF,22,2201,CALAMA,22,EL LOA,3,2,0,0,10,0,0,0,0,0,0,0,0,0,0,1,1,1, ,GRATUITO,GRATUITO,-22.463609,-68.930968,6knbpqw,POINT (-68.93096799999999 -22.463609),2201,Calama
9709,2019,12980,1,LICEO BICENTENARIO DIEGO PORTALES PALAZUELOS, ,70954900,1,2,ANTOF,22,2201,CALAMA,22,EL LOA,1,1,0,1,110,310,0,0,0,0,0,0,0,0,0,1,1,1, ,GRATUITO,SIN INFORMACION,-22.47015858,-68.92937895,6knbpmr,POINT (-68.92937895 -22.47015858),2201,Calama
9711,2019,12983,6,ESCUELA DE PÀRVULOS DREAM SCHOOL, , ,9,2,ANTOF,22,2201,CALAMA,22,EL LOA,4,3,0,0,10,0,0,0,0,0,0,0,0,0,0,1,1,1, ,$50.001 A $100.000,$50.001 A $100.000,-22.466639,-68.91992,6knbpwn,POINT (-68.91992 -22.466639),2201,Calama
9712,2019,12984,4,ESCUELA DE PÁRVULOS CHUQUICAMATA, ,72747300,1,2,ANTOF,22,2201,CALAMA,22,EL LOA,4,3,0,0,10,0,0,0,0,0,0,0,0,0,0,1,1,1, ,MAS DE $100.000,MAS DE $100.000,-22.478862,-68.91212,6knbpgg,POINT (-68.91212 -22.478862),2201,Calama
11541,2019,16897,2,ESCUELA DE PARVULOS PLANETA TIERRA II, ,65147512,1,2,ANTOF,22,2201,CALAMA,22,EL LOA,3,2,0,0,10,0,0,0,0,0,0,0,0,0,0,1,1,9, ,GRATUITO,GRATUITO,-22.463462,-68.929052,6knbpqx,POINT (-68.929052 -22.463462),2201,Calama
